{"type": "FeatureCollection",  "features": [{"type": "Feature","properties": {"marker-color": "#ff0000","marker-size": "small","name": "Красное", "link": "http://www.wikidata.org/entity/Q3920518"},"geometry": {"type": "Point","coordinates": [30.505,51.499444444]}},{"type": "Feature","properties": {"marker-color": "#ff0000","marker-size": "small","name": "Красная Нива", "link": "http://www.wikidata.org/entity/Q3920597"},"geometry": {"type": "Point","coordinates": [30.516666666,51.75]}},{"type": "Feature","properties": {"marker-color": "#ff0000","marker-size": "small","name": "Буда Красновская (Наровлянский район)", "link": "http://www.wikidata.org/entity/Q4097906"},"geometry": {"type": "Point","coordinates": [29.358333333,51.484166666]}},{"type": "Feature","properties": {"marker-color": "#ff0000","marker-size": "small","name": "Красная Буда (Добрушский район)", "link": "http://www.wikidata.org/entity/Q4237906"},"geometry": {"type": "Point","coordinates": [31.496666666,52.186666666]}},{"type": "Feature","properties": {"marker-color": "#ff0000","marker-size": "small","name": "Красная Нива (Калинковичский район)", "link": "http://www.wikidata.org/entity/Q4238005"},"geometry": {"type": "Point","coordinates": [29.333333333,52.175]}},{"type": "Feature","properties": {"marker-color": "#ff0000","marker-size": "small","name": "Красная Слобода (Могилёвский район)", "link": "http://www.wikidata.org/entity/Q4238055"},"geometry": {"type": "Point","coordinates": [30.0068,53.9096]}},{"type": "Feature","properties": {"marker-color": "#ff0000","marker-size": "small","name": "Красная Слобода (Добрынский сельсовет)", "link": "http://www.wikidata.org/entity/Q4238056"},"geometry": {"type": "Point","coordinates": [30.804444444,54.418055555]}},{"type": "Feature","properties": {"marker-color": "#ff0000","marker-size": "small","name": "Красная Слободка (Калинковичский район)", "link": "http://www.wikidata.org/entity/Q4238062"},"geometry": {"type": "Point","coordinates": [29.366666666,52.4475]}},{"type": "Feature","properties": {"marker-color": "#ff0000","marker-size": "small","name": "Красница 1 (Могилёвский район)", "link": "http://www.wikidata.org/entity/Q4238215"},"geometry": {"type": "Point","coordinates": [30.1922,53.7961]}},{"type": "Feature","properties": {"marker-color": "#ff0000","marker-size": "small","name": "Красница 2 (Могилёвский район)", "link": "http://www.wikidata.org/entity/Q4238216"},"geometry": {"type": "Point","coordinates": [30.1836,53.7903]}},{"type": "Feature","properties": {"marker-color": "#ff0000","marker-size": "small","name": "Красновка (Наровлянский район)", "link": "http://www.wikidata.org/entity/Q4238371"},"geometry": {"type": "Point","coordinates": [29.353888888,51.455555555]}},{"type": "Feature","properties": {"marker-color": "#ff0000","marker-size": "small","name": "Красное (Гомельский район)", "link": "http://www.wikidata.org/entity/Q4238588"},"geometry": {"type": "Point","coordinates": [30.919722222,52.4725]}},{"type": "Feature","properties": {"marker-color": "#ff0000","marker-size": "small","name": "Красноозёрная", "link": "http://www.wikidata.org/entity/Q4238850"},"geometry": {"type": "Point","coordinates": [26.544166666,54.739722222]}},{"type": "Feature","properties": {"marker-color": "#ff0000","marker-size": "small","name": "Красноозёрная", "link": "http://www.wikidata.org/entity/Q4238850"},"geometry": {"type": "Point","coordinates": [26.545555555,54.739444444]}},{"type": "Feature","properties": {"marker-color": "#ff0000","marker-size": "small","name": "Краснополье (Речицкий район)", "link": "http://www.wikidata.org/entity/Q4238934"},"geometry": {"type": "Point","coordinates": [30.548333333,52.155]}},{"type": "Feature","properties": {"marker-color": "#ff0000","marker-size": "small","name": "Красный Берег (Жлобинский район)", "link": "http://www.wikidata.org/entity/Q4239405"},"geometry": {"type": "Point","coordinates": [29.783333333,52.95]}},{"type": "Feature","properties": {"marker-color": "#ff0000","marker-size": "small","name": "Красный Партизан (Добрушский район)", "link": "http://www.wikidata.org/entity/Q4239564"},"geometry": {"type": "Point","coordinates": [31.673083333,52.243138888]}},{"type": "Feature","properties": {"marker-color": "#ff0000","marker-size": "small","name": "Красный Пахарь (Хойникский район)", "link": "http://www.wikidata.org/entity/Q4239582"},"geometry": {"type": "Point","coordinates": [30.071666666,51.915555555]}},{"type": "Feature","properties": {"marker-color": "#ff0000","marker-size": "small","name": "Красная Звезда", "link": "http://www.wikidata.org/entity/Q5579783"},"geometry": {"type": "Point","coordinates": [26.677777777,53.01]}},{"type": "Feature","properties": {"marker-color": "#ff0000","marker-size": "small","name": "Великий Красник", "link": "http://www.wikidata.org/entity/Q6478639"},"geometry": {"type": "Point","coordinates": [24.153055555,52.723055555]}},{"type": "Feature","properties": {"marker-color": "#ff0000","marker-size": "small","name": "Красногорки", "link": "http://www.wikidata.org/entity/Q6502286"},"geometry": {"type": "Point","coordinates": [26.459444444,53.338611111]}},{"type": "Feature","properties": {"marker-color": "#ff0000","marker-size": "small","name": "Красное (Бобруйский район)", "link": "http://www.wikidata.org/entity/Q6502322"},"geometry": {"type": "Point","coordinates": [29.0911,53.2372]}},{"type": "Feature","properties": {"marker-color": "#ff0000","marker-size": "small","name": "Красное", "link": "http://www.wikidata.org/entity/Q6502327"},"geometry": {"type": "Point","coordinates": [23.974527777,53.058194444]}},{"type": "Feature","properties": {"marker-color": "#ff0000","marker-size": "small","name": "Красное", "link": "http://www.wikidata.org/entity/Q6502354"},"geometry": {"type": "Point","coordinates": [27.154166666,53.913888888]}},{"type": "Feature","properties": {"marker-color": "#ff0000","marker-size": "small","name": "Красное", "link": "http://www.wikidata.org/entity/Q6502360"},"geometry": {"type": "Point","coordinates": [24.361944444,52.678888888]}},{"type": "Feature","properties": {"marker-color": "#ff0000","marker-size": "small","name": "Красное", "link": "http://www.wikidata.org/entity/Q6502360"},"geometry": {"type": "Point","coordinates": [24.361111111,52.68]}},{"type": "Feature","properties": {"marker-color": "#ff0000","marker-size": "small","name": "Красное", "link": "http://www.wikidata.org/entity/Q6502378"},"geometry": {"type": "Point","coordinates": [27.404833333,55.5115]}},{"type": "Feature","properties": {"marker-color": "#ff0000","marker-size": "small","name": "Красное", "link": "http://www.wikidata.org/entity/Q6502387"},"geometry": {"type": "Point","coordinates": [28.59611111,54.09138889]}},{"type": "Feature","properties": {"marker-color": "#ff0000","marker-size": "small","name": "Краснолуки", "link": "http://www.wikidata.org/entity/Q6502405"},"geometry": {"type": "Point","coordinates": [28.834722222,54.616388888]}},{"type": "Feature","properties": {"marker-color": "#ff0000","marker-size": "small","name": "Красносельцы", "link": "http://www.wikidata.org/entity/Q6502442"},"geometry": {"type": "Point","coordinates": [26.986027777,55.641111111]}},{"type": "Feature","properties": {"marker-color": "#ff0000","marker-size": "small","name": "Красная Гора", "link": "http://www.wikidata.org/entity/Q6502468"},"geometry": {"type": "Point","coordinates": [28.86,54.20194444]}},{"type": "Feature","properties": {"marker-color": "#ff0000","marker-size": "small","name": "Красновцы", "link": "http://www.wikidata.org/entity/Q6502542"},"geometry": {"type": "Point","coordinates": [25.04,53.829722222]}},{"type": "Feature","properties": {"marker-color": "#ff0000","marker-size": "small","name": "Красновцы", "link": "http://www.wikidata.org/entity/Q6502542"},"geometry": {"type": "Point","coordinates": [25.041,53.830666666]}},{"type": "Feature","properties": {"marker-color": "#ff0000","marker-size": "small","name": "Малый Красник", "link": "http://www.wikidata.org/entity/Q6511385"},"geometry": {"type": "Point","coordinates": [24.18,52.716388888]}},{"type": "Feature","properties": {"marker-color": "#ff0000","marker-size": "small","name": "Красное Озеро (Хойникский район)", "link": "http://www.wikidata.org/entity/Q6547212"},"geometry": {"type": "Point","coordinates": [29.99,51.812777777]}},{"type": "Feature","properties": {"marker-color": "#ff0000","marker-size": "small","name": "Красная Слобода", "link": "http://www.wikidata.org/entity/Q6547317"},"geometry": {"type": "Point","coordinates": [30.836361111,54.585638888]}},{"type": "Feature","properties": {"marker-color": "#ff0000","marker-size": "small","name": "Красная Харьковка", "link": "http://www.wikidata.org/entity/Q6547322"},"geometry": {"type": "Point","coordinates": [30.403888888,54.460833333]}},{"type": "Feature","properties": {"marker-color": "#ff0000","marker-size": "small","name": "Красный Пахарь", "link": "http://www.wikidata.org/entity/Q6547366"},"geometry": {"type": "Point","coordinates": [29.40166667,54.09194444]}},{"type": "Feature","properties": {"marker-color": "#ff0000","marker-size": "small","name": "Красный Пахарь", "link": "http://www.wikidata.org/entity/Q6547366"},"geometry": {"type": "Point","coordinates": [29.401666666,54.092777777]}},{"type": "Feature","properties": {"marker-color": "#ff0000","marker-size": "small","name": "Красный Пахарь", "link": "http://www.wikidata.org/entity/Q6547373"},"geometry": {"type": "Point","coordinates": [28.21875,53.576388888]}},{"type": "Feature","properties": {"marker-color": "#ff0000","marker-size": "small","name": "Красный Пахарь", "link": "http://www.wikidata.org/entity/Q6547373"},"geometry": {"type": "Point","coordinates": [28.219722222,53.576388888]}},{"type": "Feature","properties": {"marker-color": "#ff0000","marker-size": "small","name": "Красный Восход", "link": "http://www.wikidata.org/entity/Q13029759"},"geometry": {"type": "Point","coordinates": [30.871147222,53.40915]}},{"type": "Feature","properties": {"marker-color": "#ff0000","marker-size": "small","name": "Краснополье-2", "link": "http://www.wikidata.org/entity/Q13652934"},"geometry": {"type": "Point","coordinates": [30.373611111,53.934902777]}},{"type": "Feature","properties": {"marker-color": "#ff0000","marker-size": "small","name": "Красная Буда (Чаусский район)", "link": "http://www.wikidata.org/entity/Q13661737"},"geometry": {"type": "Point","coordinates": [30.900206939,53.713752752]}},{"type": "Feature","properties": {"marker-color": "#ff0000","marker-size": "small","name": "Красница (Чаусский район)", "link": "http://www.wikidata.org/entity/Q13661955"},"geometry": {"type": "Point","coordinates": [30.739909101,53.873601755]}},{"type": "Feature","properties": {"marker-color": "#ff0000","marker-size": "small","name": "Красное (Глусский район)", "link": "http://www.wikidata.org/entity/Q13662812"},"geometry": {"type": "Point","coordinates": [28.6231,52.9561]}},{"type": "Feature","properties": {"marker-color": "#ff0000","marker-size": "small","name": "Красное (Сморгонский район)", "link": "http://www.wikidata.org/entity/Q13664696"},"geometry": {"type": "Point","coordinates": [26.345,54.440277777]}},{"type": "Feature","properties": {"marker-color": "#ff0000","marker-size": "small","name": "Красное (Сморгонский район)", "link": "http://www.wikidata.org/entity/Q13664696"},"geometry": {"type": "Point","coordinates": [26.349444444,54.441388888]}},{"type": "Feature","properties": {"marker-color": "#ff0000","marker-size": "small","name": "Красная Дуброва", "link": "http://www.wikidata.org/entity/Q16666783"},"geometry": {"type": "Point","coordinates": [29.4375,53.1172]}},{"type": "Feature","properties": {"marker-color": "#ff0000","marker-size": "small","name": "Красновичи", "link": "http://www.wikidata.org/entity/Q16666863"},"geometry": {"type": "Point","coordinates": [28.8247,53.0694]}},{"type": "Feature","properties": {"marker-color": "#ff0000","marker-size": "small","name": "Красное", "link": "http://www.wikidata.org/entity/Q16703180"},"geometry": {"type": "Point","coordinates": [28.10416667,54.03416667]}},{"type": "Feature","properties": {"marker-color": "#ff0000","marker-size": "small","name": "Красный Берег", "link": "http://www.wikidata.org/entity/Q16703192"},"geometry": {"type": "Point","coordinates": [26.830833333,54.664722222]}},{"type": "Feature","properties": {"marker-color": "#ff0000","marker-size": "small","name": "Краснополье", "link": "http://www.wikidata.org/entity/Q16703228"},"geometry": {"type": "Point","coordinates": [28.956666666,53.836666666]}},{"type": "Feature","properties": {"marker-color": "#ff0000","marker-size": "small","name": "Красняны", "link": "http://www.wikidata.org/entity/Q16703240"},"geometry": {"type": "Point","coordinates": [27.236666666,54.977222222]}},{"type": "Feature","properties": {"marker-color": "#ff0000","marker-size": "small","name": "Красняны", "link": "http://www.wikidata.org/entity/Q16703240"},"geometry": {"type": "Point","coordinates": [27.25138889,54.9775]}},{"type": "Feature","properties": {"marker-color": "#ff0000","marker-size": "small","name": "Красновка", "link": "http://www.wikidata.org/entity/Q16703246"},"geometry": {"type": "Point","coordinates": [28.89138889,54.57916667]}},{"type": "Feature","properties": {"marker-color": "#ff0000","marker-size": "small","name": "Красный Берег", "link": "http://www.wikidata.org/entity/Q16723072"},"geometry": {"type": "Point","coordinates": [28.939166666,53.785277777]}},{"type": "Feature","properties": {"marker-color": "#ff0000","marker-size": "small","name": "Красный Берег", "link": "http://www.wikidata.org/entity/Q16723072"},"geometry": {"type": "Point","coordinates": [28.94305556,53.78694444]}},{"type": "Feature","properties": {"marker-color": "#ff0000","marker-size": "small","name": "Красный Бережок", "link": "http://www.wikidata.org/entity/Q16723076"},"geometry": {"type": "Point","coordinates": [26.891666666,54.460833333]}},{"type": "Feature","properties": {"marker-color": "#ff0000","marker-size": "small","name": "Красный Бережок", "link": "http://www.wikidata.org/entity/Q16723076"},"geometry": {"type": "Point","coordinates": [26.89222222,54.46138889]}},{"type": "Feature","properties": {"marker-color": "#ff0000","marker-size": "small","name": "Красный Бор", "link": "http://www.wikidata.org/entity/Q16723078"},"geometry": {"type": "Point","coordinates": [29.01944444,53.7675]}},{"type": "Feature","properties": {"marker-color": "#ff0000","marker-size": "small","name": "Красный Бор", "link": "http://www.wikidata.org/entity/Q16723078"},"geometry": {"type": "Point","coordinates": [29.020555555,53.767222222]}},{"type": "Feature","properties": {"marker-color": "#ff0000","marker-size": "small","name": "Красный Угол", "link": "http://www.wikidata.org/entity/Q16723088"},"geometry": {"type": "Point","coordinates": [29.038611111,53.7625]}},{"type": "Feature","properties": {"marker-color": "#ff0000","marker-size": "small","name": "Красный Угол", "link": "http://www.wikidata.org/entity/Q16723088"},"geometry": {"type": "Point","coordinates": [29.03888889,53.7625]}},{"type": "Feature","properties": {"marker-color": "#ff0000","marker-size": "small","name": "Красноармейская", "link": "http://www.wikidata.org/entity/Q16723105"},"geometry": {"type": "Point","coordinates": [26.76277778,54.11027778]}},{"type": "Feature","properties": {"marker-color": "#ff0000","marker-size": "small","name": "Красноармейская", "link": "http://www.wikidata.org/entity/Q16723105"},"geometry": {"type": "Point","coordinates": [26.763333333,54.110833333]}},{"type": "Feature","properties": {"marker-color": "#ff0000","marker-size": "small","name": "Красная Горка", "link": "http://www.wikidata.org/entity/Q3518792"},"geometry": {"type": "Point","coordinates": [30.144444444,51.848333333]}},{"type": "Feature","properties": {"marker-color": "#ff0000","marker-size": "small","name": "Краснобережье", "link": "http://www.wikidata.org/entity/Q3919282"},"geometry": {"type": "Point","coordinates": [28.436944444,51.876111111]}},{"type": "Feature","properties": {"marker-color": "#ff0000","marker-size": "small","name": "Краснобережье", "link": "http://www.wikidata.org/entity/Q3919282"},"geometry": {"type": "Point","coordinates": [28.433333333,51.883333333]}},{"type": "Feature","properties": {"marker-color": "#ff0000","marker-size": "small","name": "Красное", "link": "http://www.wikidata.org/entity/Q3920518"},"geometry": {"type": "Point","coordinates": [30.505,51.499444444]}},{"type": "Feature","properties": {"marker-color": "#ff0000","marker-size": "small","name": "Красная Нива", "link": "http://www.wikidata.org/entity/Q3920597"},"geometry": {"type": "Point","coordinates": [30.516666666,51.75]}},{"type": "Feature","properties": {"marker-color": "#ff0000","marker-size": "small","name": "Красное", "link": "http://www.wikidata.org/entity/Q3917896"},"geometry": {"type": "Point","coordinates": [27.0833,54.2333]}},{"type": "Feature","properties": {"marker-color": "#ff0000","marker-size": "small","name": "Красная Слобода", "link": "http://www.wikidata.org/entity/Q3918933"},"geometry": {"type": "Point","coordinates": [28.566666666,52.55]}},{"type": "Feature","properties": {"marker-color": "#ff0000","marker-size": "small","name": "Буда Красновская (Наровлянский район)", "link": "http://www.wikidata.org/entity/Q4097906"},"geometry": {"type": "Point","coordinates": [29.358333333,51.484166666]}},{"type": "Feature","properties": {"marker-color": "#ff0000","marker-size": "small","name": "Красная Буда (Добрушский район)", "link": "http://www.wikidata.org/entity/Q4237906"},"geometry": {"type": "Point","coordinates": [31.496666666,52.186666666]}},{"type": "Feature","properties": {"marker-color": "#ff0000","marker-size": "small","name": "Красная Дуброва (Речицкий район)", "link": "http://www.wikidata.org/entity/Q4237965"},"geometry": {"type": "Point","coordinates": [30.085477,52.275445]}},{"type": "Feature","properties": {"marker-color": "#ff0000","marker-size": "small","name": "Красная Нива (Калинковичский район)", "link": "http://www.wikidata.org/entity/Q4238005"},"geometry": {"type": "Point","coordinates": [29.333333333,52.175]}},{"type": "Feature","properties": {"marker-color": "#ff0000","marker-size": "small","name": "Красная Слобода (Жлобинский район)", "link": "http://www.wikidata.org/entity/Q4238053"},"geometry": {"type": "Point","coordinates": [29.836944444,52.974166666]}},{"type": "Feature","properties": {"marker-color": "#ff0000","marker-size": "small","name": "Красная Слобода (Могилёвский район)", "link": "http://www.wikidata.org/entity/Q4238055"},"geometry": {"type": "Point","coordinates": [30.0068,53.9096]}},{"type": "Feature","properties": {"marker-color": "#ff0000","marker-size": "small","name": "Красная Слобода (Добрынский сельсовет)", "link": "http://www.wikidata.org/entity/Q4238056"},"geometry": {"type": "Point","coordinates": [30.804444444,54.418055555]}},{"type": "Feature","properties": {"marker-color": "#ff0000","marker-size": "small","name": "Красная Слободка (Калинковичский район)", "link": "http://www.wikidata.org/entity/Q4238062"},"geometry": {"type": "Point","coordinates": [29.366666666,52.4475]}},{"type": "Feature","properties": {"marker-color": "#ff0000","marker-size": "small","name": "Красница (Рогачёвский район)", "link": "http://www.wikidata.org/entity/Q4238212"},"geometry": {"type": "Point","coordinates": [30.375,53.0475]}},{"type": "Feature","properties": {"marker-color": "#ff0000","marker-size": "small","name": "Красница 1 (Могилёвский район)", "link": "http://www.wikidata.org/entity/Q4238215"},"geometry": {"type": "Point","coordinates": [30.1922,53.7961]}},{"type": "Feature","properties": {"marker-color": "#ff0000","marker-size": "small","name": "Красница 2 (Могилёвский район)", "link": "http://www.wikidata.org/entity/Q4238216"},"geometry": {"type": "Point","coordinates": [30.1836,53.7903]}},{"type": "Feature","properties": {"marker-color": "#ff0000","marker-size": "small","name": "Краснобережская Слободка (Жлобинский район)", "link": "http://www.wikidata.org/entity/Q4238296"},"geometry": {"type": "Point","coordinates": [29.798333333,52.944444444]}},{"type": "Feature","properties": {"marker-color": "#ff0000","marker-size": "small","name": "Красновка (Наровлянский район)", "link": "http://www.wikidata.org/entity/Q4238371"},"geometry": {"type": "Point","coordinates": [29.353888888,51.455555555]}},{"type": "Feature","properties": {"marker-color": "#ff0000","marker-size": "small","name": "Красновка (Светлогорский район)", "link": "http://www.wikidata.org/entity/Q4238372"},"geometry": {"type": "Point","coordinates": [29.331111111,52.872222222]}},{"type": "Feature","properties": {"marker-color": "#ff0000","marker-size": "small","name": "Красногорка (Рогачёвский район)", "link": "http://www.wikidata.org/entity/Q4238450"},"geometry": {"type": "Point","coordinates": [30.525277777,53.225]}},{"type": "Feature","properties": {"marker-color": "#ff0000","marker-size": "small","name": "Красное (Гомельский район)", "link": "http://www.wikidata.org/entity/Q4238588"},"geometry": {"type": "Point","coordinates": [30.919722222,52.4725]}},{"type": "Feature","properties": {"marker-color": "#ff0000","marker-size": "small","name": "Красное Знамя (Добрушский район)", "link": "http://www.wikidata.org/entity/Q4238658"},"geometry": {"type": "Point","coordinates": [31.550833333,52.497611111]}},{"type": "Feature","properties": {"marker-color": "#ff0000","marker-size": "small","name": "Красноземье (Речицкий район)", "link": "http://www.wikidata.org/entity/Q4238730"},"geometry": {"type": "Point","coordinates": [30.433333333,52.258611111]}},{"type": "Feature","properties": {"marker-color": "#ff0000","marker-size": "small","name": "Красноозёрная", "link": "http://www.wikidata.org/entity/Q4238850"},"geometry": {"type": "Point","coordinates": [26.544166666,54.739722222]}},{"type": "Feature","properties": {"marker-color": "#ff0000","marker-size": "small","name": "Красноозёрная", "link": "http://www.wikidata.org/entity/Q4238850"},"geometry": {"type": "Point","coordinates": [26.545555555,54.739444444]}},{"type": "Feature","properties": {"marker-color": "#ff0000","marker-size": "small","name": "Красный Берег (Жлобинский район)", "link": "http://www.wikidata.org/entity/Q4239405"},"geometry": {"type": "Point","coordinates": [29.783333333,52.95]}},{"type": "Feature","properties": {"marker-color": "#ff0000","marker-size": "small","name": "Красный Мост (Речицкий район)", "link": "http://www.wikidata.org/entity/Q4239533"},"geometry": {"type": "Point","coordinates": [30.515277777,52.247777777]}},{"type": "Feature","properties": {"marker-color": "#ff0000","marker-size": "small","name": "Красный Октябрь (Славгородский район)", "link": "http://www.wikidata.org/entity/Q4239553"},"geometry": {"type": "Point","coordinates": [31.081666666,53.576666666]}},{"type": "Feature","properties": {"marker-color": "#ff0000","marker-size": "small","name": "Красный Партизан (Добрушский район)", "link": "http://www.wikidata.org/entity/Q4239564"},"geometry": {"type": "Point","coordinates": [31.673083333,52.243138888]}},{"type": "Feature","properties": {"marker-color": "#ff0000","marker-size": "small","name": "Красные Будники", "link": "http://www.wikidata.org/entity/Q20189461"},"geometry": {"type": "Point","coordinates": [29.555277777,55.021944444]}},{"type": "Feature","properties": {"marker-color": "#ff0000","marker-size": "small","name": "Красное", "link": "http://www.wikidata.org/entity/Q20475184"},"geometry": {"type": "Point","coordinates": [29.814128027,53.953085052]}},{"type": "Feature","properties": {"marker-color": "#ff0000","marker-size": "small","name": "Красное", "link": "http://www.wikidata.org/entity/Q20475187"},"geometry": {"type": "Point","coordinates": [27.594444444,55.496944444]}},{"type": "Feature","properties": {"marker-color": "#ff0000","marker-size": "small","name": "Красное", "link": "http://www.wikidata.org/entity/Q20475191"},"geometry": {"type": "Point","coordinates": [29.051388888,53.306111111]}},{"type": "Feature","properties": {"marker-color": "#ff0000","marker-size": "small","name": "Красное Березино", "link": "http://www.wikidata.org/entity/Q20475198"},"geometry": {"type": "Point","coordinates": [27.7425,54.878611111]}},{"type": "Feature","properties": {"marker-color": "#ff0000","marker-size": "small","name": "Красное Село", "link": "http://www.wikidata.org/entity/Q20475201"},"geometry": {"type": "Point","coordinates": [29.741111111,54.647777777]}},{"type": "Feature","properties": {"marker-color": "#ff0000","marker-size": "small","name": "Краснополье", "link": "http://www.wikidata.org/entity/Q20475210"},"geometry": {"type": "Point","coordinates": [29.264722222,55.813055555]}},{"type": "Feature","properties": {"marker-color": "#ff0000","marker-size": "small","name": "Краснополье", "link": "http://www.wikidata.org/entity/Q20475213"},"geometry": {"type": "Point","coordinates": [29.940705867,53.667316545]}},{"type": "Feature","properties": {"marker-color": "#ff0000","marker-size": "small","name": "Красновцы", "link": "http://www.wikidata.org/entity/Q20475215"},"geometry": {"type": "Point","coordinates": [27.987222222,55.605277777]}},{"type": "Feature","properties": {"marker-color": "#ff0000","marker-size": "small","name": "Красная Гора", "link": "http://www.wikidata.org/entity/Q20475219"},"geometry": {"type": "Point","coordinates": [29.729166666,53.155555555]}},{"type": "Feature","properties": {"marker-color": "#ff0000","marker-size": "small","name": "Красная Гора", "link": "http://www.wikidata.org/entity/Q20475221"},"geometry": {"type": "Point","coordinates": [27.897777777,55.449722222]}},{"type": "Feature","properties": {"marker-color": "#ff0000","marker-size": "small","name": "Красная Горка", "link": "http://www.wikidata.org/entity/Q20475225"},"geometry": {"type": "Point","coordinates": [29.005277777,55.22]}},{"type": "Feature","properties": {"marker-color": "#ff0000","marker-size": "small","name": "Красная Звезда", "link": "http://www.wikidata.org/entity/Q20475245"},"geometry": {"type": "Point","coordinates": [32.212777777,53.354722222]}},{"type": "Feature","properties": {"marker-color": "#ff0000","marker-size": "small","name": "Красная Искра", "link": "http://www.wikidata.org/entity/Q20475253"},"geometry": {"type": "Point","coordinates": [30.478888888,55.251666666]}},{"type": "Feature","properties": {"marker-color": "#ff0000","marker-size": "small","name": "Красная Слобода", "link": "http://www.wikidata.org/entity/Q20475257"},"geometry": {"type": "Point","coordinates": [31.970555555,53.368611111]}},{"type": "Feature","properties": {"marker-color": "#ff0000","marker-size": "small","name": "Красная Слобода", "link": "http://www.wikidata.org/entity/Q20475259"},"geometry": {"type": "Point","coordinates": [30.528758515,53.447138161]}},{"type": "Feature","properties": {"marker-color": "#ff0000","marker-size": "small","name": "Красная Слобода", "link": "http://www.wikidata.org/entity/Q20475261"},"geometry": {"type": "Point","coordinates": [29.794622898,53.846121269]}},{"type": "Feature","properties": {"marker-color": "#ff0000","marker-size": "small","name": "Красница", "link": "http://www.wikidata.org/entity/Q20475265"},"geometry": {"type": "Point","coordinates": [29.082222222,54.973611111]}},{"type": "Feature","properties": {"marker-color": "#ff0000","marker-size": "small","name": "Красница", "link": "http://www.wikidata.org/entity/Q20475269"},"geometry": {"type": "Point","coordinates": [29.426944444,53.284722222]}},{"type": "Feature","properties": {"marker-color": "#ff0000","marker-size": "small","name": "Красница 1", "link": "http://www.wikidata.org/entity/Q20475271"},"geometry": {"type": "Point","coordinates": [30.541407154,53.58683444]}},{"type": "Feature","properties": {"marker-color": "#ff0000","marker-size": "small","name": "Красница 2", "link": "http://www.wikidata.org/entity/Q20475273"},"geometry": {"type": "Point","coordinates": [30.500469697,53.571747422]}},{"type": "Feature","properties": {"marker-color": "#ff0000","marker-size": "small","name": "Красный Октябрь", "link": "http://www.wikidata.org/entity/Q20475291"},"geometry": {"type": "Point","coordinates": [29.013611111,54.703055555]}},{"type": "Feature","properties": {"marker-color": "#ff0000","marker-size": "small","name": "Красный Осовец", "link": "http://www.wikidata.org/entity/Q20475293"},"geometry": {"type": "Point","coordinates": [30.579736542,53.641649206]}},{"type": "Feature","properties": {"marker-color": "#ff0000","marker-size": "small","name": "Красный Берег", "link": "http://www.wikidata.org/entity/Q20475296"},"geometry": {"type": "Point","coordinates": [30.190404785,53.330349875]}},{"type": "Feature","properties": {"marker-color": "#ff0000","marker-size": "small","name": "Красный Бережок", "link": "http://www.wikidata.org/entity/Q20475299"},"geometry": {"type": "Point","coordinates": [29.725833333,53.133333333]}},{"type": "Feature","properties": {"marker-color": "#ff0000","marker-size": "small","name": "Красный Бор", "link": "http://www.wikidata.org/entity/Q20475304"},"geometry": {"type": "Point","coordinates": [29.655944107,53.873221107]}},{"type": "Feature","properties": {"marker-color": "#ff0000","marker-size": "small","name": "Красный Луч", "link": "http://www.wikidata.org/entity/Q20475318"},"geometry": {"type": "Point","coordinates": [29.669444444,54.859166666]}},{"type": "Feature","properties": {"marker-color": "#ff0000","marker-size": "small","name": "Красный Пахарь", "link": "http://www.wikidata.org/entity/Q20475320"},"geometry": {"type": "Point","coordinates": [29.860277777,54.013888888]}},{"type": "Feature","properties": {"marker-color": "#ff0000","marker-size": "small","name": "Красное Село", "link": "http://www.wikidata.org/entity/Q20506647"},"geometry": {"type": "Point","coordinates": [28.931111111,54.989722222]}},{"type": "Feature","properties": {"marker-color": "#ff0000","marker-size": "small","name": "Красный Октябрь", "link": "http://www.wikidata.org/entity/Q20507541"},"geometry": {"type": "Point","coordinates": [28.735833333,54.754722222]}},{"type": "Feature","properties": {"marker-color": "#ff0000","marker-size": "small","name": "Красный Берег", "link": "http://www.wikidata.org/entity/Q20610240"},"geometry": {"type": "Point","coordinates": [29.209166666,53.436944444]}},{"type": "Feature","properties": {"marker-color": "#ff0000","marker-size": "small","name": "Красногорье", "link": "http://www.wikidata.org/entity/Q20611933"},"geometry": {"type": "Point","coordinates": [29.936666666,54.184166666]}},{"type": "Feature","properties": {"marker-color": "#ff0000","marker-size": "small","name": "Красный Лес", "link": "http://www.wikidata.org/entity/Q20610817"},"geometry": {"type": "Point","coordinates": [29.215555555,53.603888888]}},{"type": "Feature","properties": {"marker-color": "#ff0000","marker-size": "small","name": "Красный Октябрь", "link": "http://www.wikidata.org/entity/Q20661986"},"geometry": {"type": "Point","coordinates": [31.079722222,53.576388888]}},{"type": "Feature","properties": {"marker-color": "#ff0000","marker-size": "small","name": "Красная Поляна", "link": "http://www.wikidata.org/entity/Q20662002"},"geometry": {"type": "Point","coordinates": [32.418888888,53.248888888]}},{"type": "Feature","properties": {"marker-color": "#ff0000","marker-size": "small","name": "Красная Горка", "link": "http://www.wikidata.org/entity/Q20661324"},"geometry": {"type": "Point","coordinates": [31.810833333,53.961111111]}},{"type": "Feature","properties": {"marker-color": "#ff0000","marker-size": "small","name": "Красное", "link": "http://www.wikidata.org/entity/Q20662466"},"geometry": {"type": "Point","coordinates": [30.1975,54.215555555]}},{"type": "Feature","properties": {"marker-color": "#ff0000","marker-size": "small","name": "Красная Заря", "link": "http://www.wikidata.org/entity/Q20662018"},"geometry": {"type": "Point","coordinates": [32.330555555,53.367222222]}},{"type": "Feature","properties": {"marker-color": "#ff0000","marker-size": "small","name": "Красная Горка", "link": "http://www.wikidata.org/entity/Q20662557"},"geometry": {"type": "Point","coordinates": [30.046111111,54.181666666]}},{"type": "Feature","properties": {"marker-color": "#ff0000","marker-size": "small","name": "Красная Гора", "link": "http://www.wikidata.org/entity/Q20662614"},"geometry": {"type": "Point","coordinates": [30.221111111,51.778333333]}},{"type": "Feature","properties": {"marker-color": "#ff0000","marker-size": "small","name": "Красная Горка", "link": "http://www.wikidata.org/entity/Q20664261"},"geometry": {"type": "Point","coordinates": [28.753055555,52.342222222]}},{"type": "Feature","properties": {"marker-color": "#ff0000","marker-size": "small","name": "Красноселье", "link": "http://www.wikidata.org/entity/Q20678423"},"geometry": {"type": "Point","coordinates": [29.9,51.556666666]}},{"type": "Feature","properties": {"marker-color": "#ff0000","marker-size": "small","name": "Красновка", "link": "http://www.wikidata.org/entity/Q20678425"},"geometry": {"type": "Point","coordinates": [29.333333333,52.871944444]}},{"type": "Feature","properties": {"marker-color": "#ff0000","marker-size": "small","name": "Красносельский", "link": "http://www.wikidata.org/entity/Q2446345"},"geometry": {"type": "Point","coordinates": [24.416944444,53.278888888]}},{"type": "Feature","properties": {"marker-color": "#ff0000","marker-size": "small","name": "Красная Слобода", "link": "http://www.wikidata.org/entity/Q2617132"},"geometry": {"type": "Point","coordinates": [27.15,52.85]}},{"type": "Feature","properties": {"marker-color": "#ff0000","marker-size": "small","name": "Краснополье", "link": "http://www.wikidata.org/entity/Q2630603"},"geometry": {"type": "Point","coordinates": [31.402222222,53.333333333]}},{"type": "Feature","properties": {"marker-color": "#ff0000","marker-size": "small","name": "Красное", "link": "http://www.wikidata.org/entity/Q21627797"},"geometry": {"type": "Point","coordinates": [24.531111111,53.853611111]}},{"type": "Feature","properties": {"marker-color": "#ff0000","marker-size": "small","name": "Красный Яр", "link": "http://www.wikidata.org/entity/Q21649850"},"geometry": {"type": "Point","coordinates": [28.048888888,53.6025]}},{"type": "Feature","properties": {"marker-color": "#ff0000","marker-size": "small","name": "Красная Нива", "link": "http://www.wikidata.org/entity/Q21649882"},"geometry": {"type": "Point","coordinates": [28.011944444,53.623055555]}},{"type": "Feature","properties": {"marker-color": "#ff0000","marker-size": "small","name": "Красный Бор", "link": "http://www.wikidata.org/entity/Q21648103"},"geometry": {"type": "Point","coordinates": [27.77111111,54.29166667]}},{"type": "Feature","properties": {"marker-color": "#ff0000","marker-size": "small","name": "Красный Бор", "link": "http://www.wikidata.org/entity/Q21648103"},"geometry": {"type": "Point","coordinates": [27.774444444,54.291388888]}},{"type": "Feature","properties": {"marker-color": "#ff0000","marker-size": "small","name": "Красный Берег", "link": "http://www.wikidata.org/entity/Q21650493"},"geometry": {"type": "Point","coordinates": [27.679722222,52.671666666]}},{"type": "Feature","properties": {"marker-color": "#ff0000","marker-size": "small","name": "Краснодворцы", "link": "http://www.wikidata.org/entity/Q21650509"},"geometry": {"type": "Point","coordinates": [27.437777777,52.810833333]}},{"type": "Feature","properties": {"marker-color": "#ff0000","marker-size": "small","name": "Красный Октябрь", "link": "http://www.wikidata.org/entity/Q21649897"},"geometry": {"type": "Point","coordinates": [28.400555555,53.512222222]}},{"type": "Feature","properties": {"marker-color": "#ff0000","marker-size": "small","name": "Красная Горка", "link": "http://www.wikidata.org/entity/Q21634052"},"geometry": {"type": "Point","coordinates": [27.278611111,53.731666666]}},{"type": "Feature","properties": {"marker-color": "#ff0000","marker-size": "small","name": "Красное", "link": "http://www.wikidata.org/entity/Q21648134"},"geometry": {"type": "Point","coordinates": [27.666111111,54.571111111]}},{"type": "Feature","properties": {"marker-color": "#ff0000","marker-size": "small","name": "Красное", "link": "http://www.wikidata.org/entity/Q21648134"},"geometry": {"type": "Point","coordinates": [27.66805556,54.57]}},{"type": "Feature","properties": {"marker-color": "#ff0000","marker-size": "small","name": "Красный Посёлок", "link": "http://www.wikidata.org/entity/Q21649983"},"geometry": {"type": "Point","coordinates": [28.211944444,53.288888888]}},{"type": "Feature","properties": {"marker-color": "#ff0000","marker-size": "small","name": "Красное", "link": "http://www.wikidata.org/entity/Q21650056"},"geometry": {"type": "Point","coordinates": [27.948333333,53.159722222]}},{"type": "Feature","properties": {"marker-color": "#ff0000","marker-size": "small","name": "Красноволье", "link": "http://www.wikidata.org/entity/Q21648221"},"geometry": {"type": "Point","coordinates": [27.593055555,54.524166666]}},{"type": "Feature","properties": {"marker-color": "#ff0000","marker-size": "small","name": "Красное", "link": "http://www.wikidata.org/entity/Q21650792"},"geometry": {"type": "Point","coordinates": [27.375555555,53.475277777]}},{"type": "Feature","properties": {"marker-color": "#ff0000","marker-size": "small","name": "Красное Село", "link": "http://www.wikidata.org/entity/Q21650099"},"geometry": {"type": "Point","coordinates": [27.76,53.083333333]}},{"type": "Feature","properties": {"marker-color": "#ff0000","marker-size": "small","name": "Красное Озеро", "link": "http://www.wikidata.org/entity/Q21650471"},"geometry": {"type": "Point","coordinates": [27.896388888,52.467222222]}},{"type": "Feature","properties": {"marker-color": "#ff0000","marker-size": "small","name": "Красное", "link": "http://www.wikidata.org/entity/Q21651541"},"geometry": {"type": "Point","coordinates": [25.601388888,51.9975]}},{"type": "Feature","properties": {"marker-color": "#ff0000","marker-size": "small","name": "Красная Гора", "link": "http://www.wikidata.org/entity/Q21650957"},"geometry": {"type": "Point","coordinates": [28.230555555,53.766388888]}},{"type": "Feature","properties": {"marker-color": "#ff0000","marker-size": "small","name": "Красная Гора", "link": "http://www.wikidata.org/entity/Q21650957"},"geometry": {"type": "Point","coordinates": [28.23055556,53.76666667]}},{"type": "Feature","properties": {"marker-color": "#ff0000","marker-size": "small","name": "Красная Нива", "link": "http://www.wikidata.org/entity/Q21650958"},"geometry": {"type": "Point","coordinates": [28.1825,53.75611111]}},{"type": "Feature","properties": {"marker-color": "#ff0000","marker-size": "small","name": "Красная Нива", "link": "http://www.wikidata.org/entity/Q21651085"},"geometry": {"type": "Point","coordinates": [28.35638889,53.86916667]}},{"type": "Feature","properties": {"marker-color": "#ff0000","marker-size": "small","name": "Красная Смена", "link": "http://www.wikidata.org/entity/Q21651122"},"geometry": {"type": "Point","coordinates": [28.67277778,53.77277778]}},{"type": "Feature","properties": {"marker-color": "#ff0000","marker-size": "small","name": "Красная Смена", "link": "http://www.wikidata.org/entity/Q21651122"},"geometry": {"type": "Point","coordinates": [28.674444444,53.774166666]}},{"type": "Feature","properties": {"marker-color": "#ff0000","marker-size": "small","name": "Красная Слобода", "link": "http://www.wikidata.org/entity/Q20475259"},"geometry": {"type": "Point","coordinates": [30.528758515,53.447138161]}},{"type": "Feature","properties": {"marker-color": "#ff0000","marker-size": "small","name": "Красная Воля", "link": "http://www.wikidata.org/entity/Q21658362"},"geometry": {"type": "Point","coordinates": [27.041111111,52.355]}},{"type": "Feature","properties": {"marker-color": "#ff0000","marker-size": "small","name": "Красный Дар", "link": "http://www.wikidata.org/entity/Q21651069"},"geometry": {"type": "Point","coordinates": [28.65138889,53.84222222]}},{"type": "Feature","properties": {"marker-color": "#ff0000","marker-size": "small","name": "Красный Дар", "link": "http://www.wikidata.org/entity/Q21651069"},"geometry": {"type": "Point","coordinates": [28.666944444,53.846944444]}},{"type": "Feature","properties": {"marker-color": "#ff0000","marker-size": "small","name": "Красная Горка", "link": "http://www.wikidata.org/entity/Q6502493"},"geometry": {"type": "Point","coordinates": [27.858916666,55.431361111]}},{"type": "Feature","properties": {"marker-color": "#ff0000","marker-size": "small","name": "Красногорка", "link": "http://www.wikidata.org/entity/Q6502278"},"geometry": {"type": "Point","coordinates": [27.324027777,55.698777777]}},{"type": "Feature","properties": {"marker-color": "#ff0000","marker-size": "small","name": "Красняне", "link": "http://www.wikidata.org/entity/Q20475322"},"geometry": {"type": "Point","coordinates": [28.236666666,55.457777777]}},{"type": "Feature","properties": {"marker-color": "#ff0000","marker-size": "small","name": "Красноселье (Хойникский район)", "link": "http://www.wikidata.org/entity/Q6502437"},"geometry": {"type": "Point","coordinates": [29.498333333,51.558888888]}},{"type": "Feature","properties": {"marker-color": "#ff0000","marker-size": "small","name": "Красный Дворец", "link": "http://www.wikidata.org/entity/Q2133847"},"geometry": {"type": "Point","coordinates": [30.911666666,52.983333333]}},{"type": "Feature","properties": {"marker-color": "#ff0000","marker-size": "small","name": "Красный Октябрь", "link": "http://www.wikidata.org/entity/Q3918360"},"geometry": {"type": "Point","coordinates": [30.829166666,52.66]}},{"type": "Feature","properties": {"marker-color": "#ff0000","marker-size": "small","name": "Красногорск", "link": "http://www.wikidata.org/entity/Q3918389"},"geometry": {"type": "Point","coordinates": [30.868611111,52.6875]}},{"type": "Feature","properties": {"marker-color": "#ff0000","marker-size": "small","name": "Красный Маяк", "link": "http://www.wikidata.org/entity/Q3919556"},"geometry": {"type": "Point","coordinates": [30.985555555,52.525]}},{"type": "Feature","properties": {"marker-color": "#ff0000","marker-size": "small","name": "Красная Нива", "link": "http://www.wikidata.org/entity/Q3920597"},"geometry": {"type": "Point","coordinates": [30.516666666,51.75]}},{"type": "Feature","properties": {"marker-color": "#ff0000","marker-size": "small","name": "Красная Гора (Добрушский район)", "link": "http://www.wikidata.org/entity/Q4237915"},"geometry": {"type": "Point","coordinates": [31.207055555,52.285222222]}},{"type": "Feature","properties": {"marker-color": "#ff0000","marker-size": "small","name": "Красная Горка (Жлобинский район)", "link": "http://www.wikidata.org/entity/Q4237931"},"geometry": {"type": "Point","coordinates": [30.025833333,52.966666666]}},{"type": "Feature","properties": {"marker-color": "#ff0000","marker-size": "small","name": "Красная Горка (Мозырский район)", "link": "http://www.wikidata.org/entity/Q4237936"},"geometry": {"type": "Point","coordinates": [29.477777777,51.93]}},{"type": "Feature","properties": {"marker-color": "#ff0000","marker-size": "small","name": "Красная Заря (Хойникский район)", "link": "http://www.wikidata.org/entity/Q4237975"},"geometry": {"type": "Point","coordinates": [30.114722222,51.845277777]}},{"type": "Feature","properties": {"marker-color": "#ff0000","marker-size": "small","name": "Красная Заря (Хойникский район)", "link": "http://www.wikidata.org/entity/Q4237975"},"geometry": {"type": "Point","coordinates": [30.113055555,51.846388888]}},{"type": "Feature","properties": {"marker-color": "#ff0000","marker-size": "small","name": "Красная Зорька (Житковичский район)", "link": "http://www.wikidata.org/entity/Q4237992"},"geometry": {"type": "Point","coordinates": [27.895277777,52.175277777]}},{"type": "Feature","properties": {"marker-color": "#ff0000","marker-size": "small","name": "Красная Площадь (Буда-Кошелёвский район)", "link": "http://www.wikidata.org/entity/Q4238018"},"geometry": {"type": "Point","coordinates": [30.563555555,52.5575]}},{"type": "Feature","properties": {"marker-color": "#ff0000","marker-size": "small","name": "Красная Слобода (Речицкий район)", "link": "http://www.wikidata.org/entity/Q4238058"},"geometry": {"type": "Point","coordinates": [30.552222222,52.326944444]}},{"type": "Feature","properties": {"marker-color": "#ff0000","marker-size": "small","name": "Краснобудский (Буда-Кошелёвский район)", "link": "http://www.wikidata.org/entity/Q4238317"},"geometry": {"type": "Point","coordinates": [30.445444444,52.588694444]}},{"type": "Feature","properties": {"marker-color": "#ff0000","marker-size": "small","name": "Красное (Чечерский район)", "link": "http://www.wikidata.org/entity/Q4238643"},"geometry": {"type": "Point","coordinates": [30.785277777,52.763333333]}},{"type": "Feature","properties": {"marker-color": "#ff0000","marker-size": "small","name": "Красное Знамя (Морозовичский сельсовет)", "link": "http://www.wikidata.org/entity/Q4238660"},"geometry": {"type": "Point","coordinates": [30.541666666,52.611944444]}},{"type": "Feature","properties": {"marker-color": "#ff0000","marker-size": "small","name": "Красное Знамя (Узовский сельсовет)", "link": "http://www.wikidata.org/entity/Q4238669"},"geometry": {"type": "Point","coordinates": [30.776944444,52.591666666]}},{"type": "Feature","properties": {"marker-color": "#ff0000","marker-size": "small","name": "Красное Селище (Гомельский район)", "link": "http://www.wikidata.org/entity/Q4238691"},"geometry": {"type": "Point","coordinates": [31.195555555,52.309444444]}},{"type": "Feature","properties": {"marker-color": "#ff0000","marker-size": "small","name": "Красноселье (Речицкий район)", "link": "http://www.wikidata.org/entity/Q4239021"},"geometry": {"type": "Point","coordinates": [30.436111111,52.211666666]}},{"type": "Feature","properties": {"marker-color": "#ff0000","marker-size": "small","name": "Красный (Гомельский район)", "link": "http://www.wikidata.org/entity/Q4239370"},"geometry": {"type": "Point","coordinates": [31.186388888,52.168333333]}},{"type": "Feature","properties": {"marker-color": "#ff0000","marker-size": "small","name": "Красный (Буда-Кошелёвский район)", "link": "http://www.wikidata.org/entity/Q4239371"},"geometry": {"type": "Point","coordinates": [30.461388888,52.569166666]}},{"type": "Feature","properties": {"marker-color": "#ff0000","marker-size": "small","name": "Красный (Петриковский район)", "link": "http://www.wikidata.org/entity/Q4239382"},"geometry": {"type": "Point","coordinates": [28.773611111,52.454166666]}},{"type": "Feature","properties": {"marker-color": "#ff0000","marker-size": "small","name": "Красный Алёс (Добрушский район)", "link": "http://www.wikidata.org/entity/Q4239399"},"geometry": {"type": "Point","coordinates": [31.466222222,52.25625]}},{"type": "Feature","properties": {"marker-color": "#ff0000","marker-size": "small","name": "Красный Богатырь (Гомельский район)", "link": "http://www.wikidata.org/entity/Q4239407"},"geometry": {"type": "Point","coordinates": [30.914444444,52.446111111]}},{"type": "Feature","properties": {"marker-color": "#ff0000","marker-size": "small","name": "Красный Берег (Чечерский район)", "link": "http://www.wikidata.org/entity/Q4239409"},"geometry": {"type": "Point","coordinates": [30.955833333,52.938333333]}},{"type": "Feature","properties": {"marker-color": "#ff0000","marker-size": "small","name": "Красный Камень (Добрушский район)", "link": "http://www.wikidata.org/entity/Q4239459"},"geometry": {"type": "Point","coordinates": [31.58,52.271944444]}},{"type": "Feature","properties": {"marker-color": "#ff0000","marker-size": "small","name": "Красный Курган (Добрушский район)", "link": "http://www.wikidata.org/entity/Q4239491"},"geometry": {"type": "Point","coordinates": [31.395277777,52.283333333]}},{"type": "Feature","properties": {"marker-color": "#ff0000","marker-size": "small","name": "Красный Курган (Буда-Кошелёвский район)", "link": "http://www.wikidata.org/entity/Q4239492"},"geometry": {"type": "Point","coordinates": [30.414722222,52.578888888]}},{"type": "Feature","properties": {"marker-color": "#ff0000","marker-size": "small","name": "Красный Лог (Добрушский район)", "link": "http://www.wikidata.org/entity/Q4239514"},"geometry": {"type": "Point","coordinates": [31.534777777,52.634944444]}},{"type": "Feature","properties": {"marker-color": "#ff0000","marker-size": "small","name": "Красный Лужок (Буда-Кошелёвский район)", "link": "http://www.wikidata.org/entity/Q4239516"},"geometry": {"type": "Point","coordinates": [30.576388888,52.616666666]}},{"type": "Feature","properties": {"marker-color": "#ff0000","marker-size": "small","name": "Красный Маяк (Урицкий сельсовет)", "link": "http://www.wikidata.org/entity/Q4239534"},"geometry": {"type": "Point","coordinates": [30.866944444,52.465833333]}},{"type": "Feature","properties": {"marker-color": "#ff0000","marker-size": "small","name": "Красный Октябрь (Добрушский район)", "link": "http://www.wikidata.org/entity/Q4239540"},"geometry": {"type": "Point","coordinates": [31.246166666,52.255194444]}},{"type": "Feature","properties": {"marker-color": "#ff0000","marker-size": "small","name": "Красный Октябрь (Речицкий район)", "link": "http://www.wikidata.org/entity/Q4239548"},"geometry": {"type": "Point","coordinates": [30.340277777,52.503055555]}},{"type": "Feature","properties": {"marker-color": "#ff0000","marker-size": "small","name": "Красный Пахарь (Ветковский район)", "link": "http://www.wikidata.org/entity/Q4239573"},"geometry": {"type": "Point","coordinates": [30.984722222,52.630555555]}},{"type": "Feature","properties": {"marker-color": "#ff0000","marker-size": "small","name": "Красный Пахарь (Ветковский район)", "link": "http://www.wikidata.org/entity/Q4239573"},"geometry": {"type": "Point","coordinates": [30.988055555,52.630833333]}},{"type": "Feature","properties": {"marker-color": "#ff0000","marker-size": "small","name": "Красный Рог (Хойникский район)", "link": "http://www.wikidata.org/entity/Q4239604"},"geometry": {"type": "Point","coordinates": [29.964444444,51.812222222]}},{"type": "Feature","properties": {"marker-color": "#ff0000","marker-size": "small","name": "Красный Свет (Гусевицкий сельсовет Буда-Кошелёвский район)", "link": "http://www.wikidata.org/entity/Q4239606"},"geometry": {"type": "Point","coordinates": [30.606666666,52.647222222]}},{"type": "Feature","properties": {"marker-color": "#ff0000","marker-size": "small","name": "Краснополье (Гетто)", "link": "http://www.wikidata.org/entity/Q30007847"},"geometry": {"type": "Point","coordinates": [31.4,53.333333]}},{"type": "Feature","properties": {"marker-color": "#ff0000","marker-size": "small","name": "Краснополье (Гетто)", "link": "http://www.wikidata.org/entity/Q30007847"},"geometry": {"type": "Point","coordinates": [31.9,53.7]}},{"type": "Feature","properties": {"marker-color": "#ff0000","marker-size": "small","name": "Красное (Гетто)", "link": "http://www.wikidata.org/entity/Q30007849"},"geometry": {"type": "Point","coordinates": [27.083333333,54.233333333]}},{"type": "Feature","properties": {"marker-color": "#ff0000","marker-size": "small","name": "Красное (Гетто)", "link": "http://www.wikidata.org/entity/Q30007849"},"geometry": {"type": "Point","coordinates": [27.6,55.5]}},{"type": "Feature","properties": {"marker-color": "#ff0000","marker-size": "small","name": "Краснолуки (Гетто)", "link": "http://www.wikidata.org/entity/Q30046869"},"geometry": {"type": "Point","coordinates": [28.823983,54.671876]}},{"type": "Feature","properties": {"marker-color": "#ff0000","marker-size": "small","name": "Красная Поляна (Чаусский район)", "link": "http://www.wikidata.org/entity/Q13661914"},"geometry": {"type": "Point","coordinates": [30.703097127,53.58202953]}},{"type": "Feature","properties": {"marker-color": "#ff0000","marker-size": "small","name": "Красный (Глусский район)", "link": "http://www.wikidata.org/entity/Q13662951"},"geometry": {"type": "Point","coordinates": [28.6328,52.8394]}},{"type": "Feature","properties": {"marker-color": "#ff0000","marker-size": "small","name": "Красная Заря", "link": "http://www.wikidata.org/entity/Q16666785"},"geometry": {"type": "Point","coordinates": [28.9036,53.0622]}},{"type": "Feature","properties": {"marker-color": "#ff0000","marker-size": "small","name": "Красный Огород", "link": "http://www.wikidata.org/entity/Q16666995"},"geometry": {"type": "Point","coordinates": [28.8261,53.0711]}},{"type": "Feature","properties": {"marker-color": "#ff0000","marker-size": "small","name": "Красное", "link": "http://www.wikidata.org/entity/Q16703182"},"geometry": {"type": "Point","coordinates": [29.01555556,53.6025]}},{"type": "Feature","properties": {"marker-color": "#ff0000","marker-size": "small","name": "Красница (Чечерский район)", "link": "http://www.wikidata.org/entity/Q20678429"},"geometry": {"type": "Point","coordinates": [30.693611111,52.961388888]}},{"type": "Feature","properties": {"marker-color": "#ff0000","marker-size": "small","name": "Красногорье", "link": "http://www.wikidata.org/entity/Q20475174"},"geometry": {"type": "Point","coordinates": [29.78947338,54.064315851]}},{"type": "Feature","properties": {"marker-color": "#ff0000","marker-size": "small","name": "Красная Горка", "link": "http://www.wikidata.org/entity/Q20475229"},"geometry": {"type": "Point","coordinates": [29.688888888,54.376388888]}},{"type": "Feature","properties": {"marker-color": "#ff0000","marker-size": "small","name": "Красная Зорька", "link": "http://www.wikidata.org/entity/Q20475248"},"geometry": {"type": "Point","coordinates": [29.82219621,53.855116349]}},{"type": "Feature","properties": {"marker-color": "#ff0000","marker-size": "small","name": "Красный Лес", "link": "http://www.wikidata.org/entity/Q20475314"},"geometry": {"type": "Point","coordinates": [29.157777777,53.100833333]}},{"type": "Feature","properties": {"marker-color": "#ff0000","marker-size": "small","name": "Краснобель", "link": "http://www.wikidata.org/entity/Q11110102"},"geometry": {"type": "Point","coordinates": [30.57,54.71805556]}},{"type": "Feature","properties": {"marker-color": "#ff0000","marker-size": "small","name": "Красный Свет", "link": "http://www.wikidata.org/entity/Q20662871"},"geometry": {"type": "Point","coordinates": [30.606666666,52.6475]}},{"type": "Feature","properties": {"marker-color": "#ff0000","marker-size": "small","name": "Красный Путь", "link": "http://www.wikidata.org/entity/Q20662938"},"geometry": {"type": "Point","coordinates": [31.302777777,52.595833333]}},{"type": "Feature","properties": {"marker-color": "#ff0000","marker-size": "small","name": "Красный", "link": "http://www.wikidata.org/entity/Q20662279"},"geometry": {"type": "Point","coordinates": [31.352222222,53.699444444]}},{"type": "Feature","properties": {"marker-color": "#ff0000","marker-size": "small","name": "Красный Луч", "link": "http://www.wikidata.org/entity/Q20662432"},"geometry": {"type": "Point","coordinates": [30.263055555,54.081944444]}},{"type": "Feature","properties": {"marker-color": "#ff0000","marker-size": "small","name": "Красники", "link": "http://www.wikidata.org/entity/Q11748067"},"geometry": {"type": "Point","coordinates": [24.0058,53.3803]}},{"type": "Feature","properties": {"marker-color": "#ff0000","marker-size": "small","name": "Краснопольцы", "link": "http://www.wikidata.org/entity/Q12114291"},"geometry": {"type": "Point","coordinates": [30.38027778,54.32194444]}},{"type": "Feature","properties": {"marker-color": "#ff0000","marker-size": "small","name": "Красный Бор", "link": "http://www.wikidata.org/entity/Q3924082"},"geometry": {"type": "Point","coordinates": [27.431388888,53.901666666]}},{"type": "Feature","properties": {"marker-color": "#ff0000","marker-size": "small","name": "Красный Восход", "link": "http://www.wikidata.org/entity/Q13029759"},"geometry": {"type": "Point","coordinates": [30.871147222,53.40915]}},{"type": "Feature","properties": {"marker-color": "#ff0000","marker-size": "small","name": "Красники", "link": "http://www.wikidata.org/entity/Q13029761"},"geometry": {"type": "Point","coordinates": [27.943972222,54.676888888]}},{"type": "Feature","properties": {"marker-color": "#ff0000","marker-size": "small","name": "Красновинка", "link": "http://www.wikidata.org/entity/Q13029763"},"geometry": {"type": "Point","coordinates": [29.44916667,54.55416667]}},{"type": "Feature","properties": {"marker-color": "#ff0000","marker-size": "small","name": "Красница", "link": "http://www.wikidata.org/entity/Q13029768"},"geometry": {"type": "Point","coordinates": [26.66333333,54.44833333]}},{"type": "Feature","properties": {"marker-color": "#ff0000","marker-size": "small","name": "Красновка", "link": "http://www.wikidata.org/entity/Q13133537"},"geometry": {"type": "Point","coordinates": [29.3475,54.3]}},{"type": "Feature","properties": {"marker-color": "#ff0000","marker-size": "small","name": "Краснополье-2", "link": "http://www.wikidata.org/entity/Q13652934"},"geometry": {"type": "Point","coordinates": [30.373611111,53.934902777]}},{"type": "Feature","properties": {"marker-color": "#ff0000","marker-size": "small","name": "Красная Буда (Чаусский район)", "link": "http://www.wikidata.org/entity/Q13661737"},"geometry": {"type": "Point","coordinates": [30.900206939,53.713752752]}},{"type": "Feature","properties": {"marker-color": "#ff0000","marker-size": "small","name": "Красница (Чаусский район)", "link": "http://www.wikidata.org/entity/Q13661955"},"geometry": {"type": "Point","coordinates": [30.739909101,53.873601755]}},{"type": "Feature","properties": {"marker-color": "#ff0000","marker-size": "small","name": "Красное (Глусский район)", "link": "http://www.wikidata.org/entity/Q13662812"},"geometry": {"type": "Point","coordinates": [28.6231,52.9561]}},{"type": "Feature","properties": {"marker-color": "#ff0000","marker-size": "small","name": "Красное (Сморгонский район)", "link": "http://www.wikidata.org/entity/Q13664696"},"geometry": {"type": "Point","coordinates": [26.345,54.440277777]}},{"type": "Feature","properties": {"marker-color": "#ff0000","marker-size": "small","name": "Красное (Сморгонский район)", "link": "http://www.wikidata.org/entity/Q13664696"},"geometry": {"type": "Point","coordinates": [26.349444444,54.441388888]}},{"type": "Feature","properties": {"marker-color": "#ff0000","marker-size": "small","name": "Красный Двор", "link": "http://www.wikidata.org/entity/Q17094959"},"geometry": {"type": "Point","coordinates": [30.31,55.346111111]}},{"type": "Feature","properties": {"marker-color": "#ff0000","marker-size": "small","name": "Красное", "link": "http://www.wikidata.org/entity/Q20475184"},"geometry": {"type": "Point","coordinates": [29.814128027,53.953085052]}},{"type": "Feature","properties": {"marker-color": "#ff0000","marker-size": "small","name": "Краснополье", "link": "http://www.wikidata.org/entity/Q20475213"},"geometry": {"type": "Point","coordinates": [29.940705867,53.667316545]}},{"type": "Feature","properties": {"marker-color": "#ff0000","marker-size": "small","name": "Красная Слобода", "link": "http://www.wikidata.org/entity/Q20475261"},"geometry": {"type": "Point","coordinates": [29.794622898,53.846121269]}},{"type": "Feature","properties": {"marker-color": "#ff0000","marker-size": "small","name": "Красница 1", "link": "http://www.wikidata.org/entity/Q20475271"},"geometry": {"type": "Point","coordinates": [30.541407154,53.58683444]}},{"type": "Feature","properties": {"marker-color": "#ff0000","marker-size": "small","name": "Красница 2", "link": "http://www.wikidata.org/entity/Q20475273"},"geometry": {"type": "Point","coordinates": [30.500469697,53.571747422]}},{"type": "Feature","properties": {"marker-color": "#ff0000","marker-size": "small","name": "Красный Осовец", "link": "http://www.wikidata.org/entity/Q20475293"},"geometry": {"type": "Point","coordinates": [30.579736542,53.641649206]}},{"type": "Feature","properties": {"marker-color": "#ff0000","marker-size": "small","name": "Красный Берег", "link": "http://www.wikidata.org/entity/Q20475296"},"geometry": {"type": "Point","coordinates": [30.190404785,53.330349875]}},{"type": "Feature","properties": {"marker-color": "#ff0000","marker-size": "small","name": "Красный Бор", "link": "http://www.wikidata.org/entity/Q20475304"},"geometry": {"type": "Point","coordinates": [29.655944107,53.873221107]}},{"type": "Feature","properties": {"marker-color": "#ff0000","marker-size": "small","name": "Красный Пахарь", "link": "http://www.wikidata.org/entity/Q20475320"},"geometry": {"type": "Point","coordinates": [29.860277777,54.013888888]}},{"type": "Feature","properties": {"marker-color": "#ff0000","marker-size": "small","name": "Красная Гора", "link": "http://www.wikidata.org/entity/Q20662614"},"geometry": {"type": "Point","coordinates": [30.221111111,51.778333333]}},{"type": "Feature","properties": {"marker-color": "#ff0000","marker-size": "small","name": "Красная Горка", "link": "http://www.wikidata.org/entity/Q20664261"},"geometry": {"type": "Point","coordinates": [28.753055555,52.342222222]}},{"type": "Feature","properties": {"marker-color": "#ff0000","marker-size": "small","name": "Красное", "link": "http://www.wikidata.org/entity/Q3917896"},"geometry": {"type": "Point","coordinates": [27.0833,54.2333]}},{"type": "Feature","properties": {"marker-color": "#ff0000","marker-size": "small","name": "Красная Звезда", "link": "http://www.wikidata.org/entity/Q5579783"},"geometry": {"type": "Point","coordinates": [26.677777777,53.01]}},{"type": "Feature","properties": {"marker-color": "#ff0000","marker-size": "small","name": "Красный Брод", "link": "http://www.wikidata.org/entity/Q6502563"},"geometry": {"type": "Point","coordinates": [29.1678,53.0347]}},{"type": "Feature","properties": {"marker-color": "#ff0000","marker-size": "small","name": "Красное", "link": "http://www.wikidata.org/entity/Q16703180"},"geometry": {"type": "Point","coordinates": [28.10416667,54.03416667]}},{"type": "Feature","properties": {"marker-color": "#ff0000","marker-size": "small","name": "Красное", "link": "http://www.wikidata.org/entity/Q16703182"},"geometry": {"type": "Point","coordinates": [29.01555556,53.6025]}},{"type": "Feature","properties": {"marker-color": "#ff0000","marker-size": "small","name": "Красный Берег", "link": "http://www.wikidata.org/entity/Q16703192"},"geometry": {"type": "Point","coordinates": [26.830833333,54.664722222]}},{"type": "Feature","properties": {"marker-color": "#ff0000","marker-size": "small","name": "Краснополье", "link": "http://www.wikidata.org/entity/Q16703228"},"geometry": {"type": "Point","coordinates": [28.956666666,53.836666666]}},{"type": "Feature","properties": {"marker-color": "#ff0000","marker-size": "small","name": "Красняны", "link": "http://www.wikidata.org/entity/Q16703240"},"geometry": {"type": "Point","coordinates": [27.236666666,54.977222222]}},{"type": "Feature","properties": {"marker-color": "#ff0000","marker-size": "small","name": "Красняны", "link": "http://www.wikidata.org/entity/Q16703240"},"geometry": {"type": "Point","coordinates": [27.25138889,54.9775]}},{"type": "Feature","properties": {"marker-color": "#ff0000","marker-size": "small","name": "Красновка", "link": "http://www.wikidata.org/entity/Q16703246"},"geometry": {"type": "Point","coordinates": [28.89138889,54.57916667]}},{"type": "Feature","properties": {"marker-color": "#ff0000","marker-size": "small","name": "Красноармейская", "link": "http://www.wikidata.org/entity/Q16723105"},"geometry": {"type": "Point","coordinates": [26.76277778,54.11027778]}},{"type": "Feature","properties": {"marker-color": "#ff0000","marker-size": "small","name": "Красноармейская", "link": "http://www.wikidata.org/entity/Q16723105"},"geometry": {"type": "Point","coordinates": [26.763333333,54.110833333]}},{"type": "Feature","properties": {"marker-color": "#ff0000","marker-size": "small","name": "Красный Берег", "link": "http://www.wikidata.org/entity/Q16723072"},"geometry": {"type": "Point","coordinates": [28.939166666,53.785277777]}},{"type": "Feature","properties": {"marker-color": "#ff0000","marker-size": "small","name": "Красный Берег", "link": "http://www.wikidata.org/entity/Q16723072"},"geometry": {"type": "Point","coordinates": [28.94305556,53.78694444]}},{"type": "Feature","properties": {"marker-color": "#ff0000","marker-size": "small","name": "Красный Бор", "link": "http://www.wikidata.org/entity/Q16723078"},"geometry": {"type": "Point","coordinates": [29.01944444,53.7675]}},{"type": "Feature","properties": {"marker-color": "#ff0000","marker-size": "small","name": "Красный Бор", "link": "http://www.wikidata.org/entity/Q16723078"},"geometry": {"type": "Point","coordinates": [29.020555555,53.767222222]}},{"type": "Feature","properties": {"marker-color": "#ff0000","marker-size": "small","name": "Красный Угол", "link": "http://www.wikidata.org/entity/Q16723088"},"geometry": {"type": "Point","coordinates": [29.038611111,53.7625]}},{"type": "Feature","properties": {"marker-color": "#ff0000","marker-size": "small","name": "Красный Угол", "link": "http://www.wikidata.org/entity/Q16723088"},"geometry": {"type": "Point","coordinates": [29.03888889,53.7625]}},{"type": "Feature","properties": {"marker-color": "#ff0000","marker-size": "small","name": "Красный Бор", "link": "http://www.wikidata.org/entity/Q21648103"},"geometry": {"type": "Point","coordinates": [27.77111111,54.29166667]}},{"type": "Feature","properties": {"marker-color": "#ff0000","marker-size": "small","name": "Красный Бор", "link": "http://www.wikidata.org/entity/Q21648103"},"geometry": {"type": "Point","coordinates": [27.774444444,54.291388888]}},{"type": "Feature","properties": {"marker-color": "#ff0000","marker-size": "small","name": "Красное", "link": "http://www.wikidata.org/entity/Q21648134"},"geometry": {"type": "Point","coordinates": [27.666111111,54.571111111]}},{"type": "Feature","properties": {"marker-color": "#ff0000","marker-size": "small","name": "Красное", "link": "http://www.wikidata.org/entity/Q21648134"},"geometry": {"type": "Point","coordinates": [27.66805556,54.57]}},{"type": "Feature","properties": {"marker-color": "#ff0000","marker-size": "small","name": "Красная Гора", "link": "http://www.wikidata.org/entity/Q21650957"},"geometry": {"type": "Point","coordinates": [28.230555555,53.766388888]}},{"type": "Feature","properties": {"marker-color": "#ff0000","marker-size": "small","name": "Красная Гора", "link": "http://www.wikidata.org/entity/Q21650957"},"geometry": {"type": "Point","coordinates": [28.23055556,53.76666667]}},{"type": "Feature","properties": {"marker-color": "#ff0000","marker-size": "small","name": "Красная Нива", "link": "http://www.wikidata.org/entity/Q21650958"},"geometry": {"type": "Point","coordinates": [28.1825,53.75611111]}},{"type": "Feature","properties": {"marker-color": "#ff0000","marker-size": "small","name": "Красный Дар", "link": "http://www.wikidata.org/entity/Q21651069"},"geometry": {"type": "Point","coordinates": [28.65138889,53.84222222]}},{"type": "Feature","properties": {"marker-color": "#ff0000","marker-size": "small","name": "Красный Дар", "link": "http://www.wikidata.org/entity/Q21651069"},"geometry": {"type": "Point","coordinates": [28.666944444,53.846944444]}},{"type": "Feature","properties": {"marker-color": "#ff0000","marker-size": "small","name": "Красная Нива", "link": "http://www.wikidata.org/entity/Q21651085"},"geometry": {"type": "Point","coordinates": [28.35638889,53.86916667]}},{"type": "Feature","properties": {"marker-color": "#ff0000","marker-size": "small","name": "Красная Смена", "link": "http://www.wikidata.org/entity/Q21651122"},"geometry": {"type": "Point","coordinates": [28.67277778,53.77277778]}},{"type": "Feature","properties": {"marker-color": "#ff0000","marker-size": "small","name": "Красная Смена", "link": "http://www.wikidata.org/entity/Q21651122"},"geometry": {"type": "Point","coordinates": [28.674444444,53.774166666]}},{"type": "Feature","properties": {"marker-color": "#ff0000","marker-size": "small","name": "Rottenburg am Neckar", "link": "http://www.wikidata.org/entity/Q7078"},"geometry": {"type": "Point","coordinates": [8.934444444,48.477222222]}},{"type": "Feature","properties": {"marker-color": "#ff0000","marker-size": "small","name": "Rottweil", "link": "http://www.wikidata.org/entity/Q82960"},"geometry": {"type": "Point","coordinates": [8.624722222,48.168055555]}},{"type": "Feature","properties": {"marker-color": "#ff0000","marker-size": "small","name": "Rottenmann", "link": "http://www.wikidata.org/entity/Q675678"},"geometry": {"type": "Point","coordinates": [14.355833333,47.526666666]}},{"type": "Feature","properties": {"marker-color": "#ff0000","marker-size": "small","name": "Rottenschwil", "link": "http://www.wikidata.org/entity/Q64433"},"geometry": {"type": "Point","coordinates": [8.36591,47.31443]}},{"type": "Feature","properties": {"marker-color": "#ff0000","marker-size": "small","name": "Rottenschwil", "link": "http://www.wikidata.org/entity/Q64433"},"geometry": {"type": "Point","coordinates": [8.366388888,47.316388888]}},{"type": "Feature","properties": {"marker-color": "#ff0000","marker-size": "small","name": "Rottweil", "link": "http://www.wikidata.org/entity/Q82960"},"geometry": {"type": "Point","coordinates": [8.624722222,48.168055555]}},{"type": "Feature","properties": {"marker-color": "#ff0000","marker-size": "small","name": "Bad Griesbach im Rottal", "link": "http://www.wikidata.org/entity/Q253284"},"geometry": {"type": "Point","coordinates": [13.2,48.45]}},{"type": "Feature","properties": {"marker-color": "#ff0000","marker-size": "small","name": "Zimmern ob Rottweil", "link": "http://www.wikidata.org/entity/Q81211"},"geometry": {"type": "Point","coordinates": [8.59436,48.1666]}},{"type": "Feature","properties": {"marker-color": "#ff0000","marker-size": "small","name": "Zimmern ob Rottweil", "link": "http://www.wikidata.org/entity/Q81211"},"geometry": {"type": "Point","coordinates": [8.591111111,48.168055555]}},{"type": "Feature","properties": {"marker-color": "#ff0000","marker-size": "small","name": "Rottenburg am Neckar", "link": "http://www.wikidata.org/entity/Q7078"},"geometry": {"type": "Point","coordinates": [8.934444444,48.477222222]}},{"type": "Feature","properties": {"marker-color": "#ff0000","marker-size": "small","name": "Rottenburg an der Laaber", "link": "http://www.wikidata.org/entity/Q170243"},"geometry": {"type": "Point","coordinates": [12.027222222,48.701944444]}},{"type": "Feature","properties": {"marker-color": "#ff0000","marker-size": "small","name": "Rot am See", "link": "http://www.wikidata.org/entity/Q81921"},"geometry": {"type": "Point","coordinates": [10.023333333,49.250833333]}},{"type": "Feature","properties": {"marker-color": "#ff0000","marker-size": "small","name": "Ruhstorf an der Rott", "link": "http://www.wikidata.org/entity/Q303923"},"geometry": {"type": "Point","coordinates": [13.336111111,48.437777777]}},{"type": "Feature","properties": {"marker-color": "#ff0000","marker-size": "small","name": "Ruhstorf an der Rott", "link": "http://www.wikidata.org/entity/Q303923"},"geometry": {"type": "Point","coordinates": [13.335501,48.438794]}},{"type": "Feature","properties": {"marker-color": "#ff0000","marker-size": "small","name": "Rot an der Rot", "link": "http://www.wikidata.org/entity/Q527998"},"geometry": {"type": "Point","coordinates": [10.031388888,48.013888888]}},{"type": "Feature","properties": {"marker-color": "#ff0000","marker-size": "small","name": "Rot an der Rot", "link": "http://www.wikidata.org/entity/Q527998"},"geometry": {"type": "Point","coordinates": [10.0333,48.0167]}},{"type": "Feature","properties": {"marker-color": "#ff0000","marker-size": "small","name": "Rottach-Egern", "link": "http://www.wikidata.org/entity/Q504255"},"geometry": {"type": "Point","coordinates": [11.770555555,47.689722222]}},{"type": "Feature","properties": {"marker-color": "#ff0000","marker-size": "small","name": "Rotthalmünster", "link": "http://www.wikidata.org/entity/Q517994"},"geometry": {"type": "Point","coordinates": [13.202777777,48.359722222]}},{"type": "Feature","properties": {"marker-color": "#ff0000","marker-size": "small","name": "Rottenbuch", "link": "http://www.wikidata.org/entity/Q518138"},"geometry": {"type": "Point","coordinates": [10.966666666,47.734722222]}},{"type": "Feature","properties": {"marker-color": "#ff0000","marker-size": "small","name": "Rotenburg (Wümme)", "link": "http://www.wikidata.org/entity/Q498560"},"geometry": {"type": "Point","coordinates": [9.396944444,53.106944444]}},{"type": "Feature","properties": {"marker-color": "#ff0000","marker-size": "small","name": "Rott", "link": "http://www.wikidata.org/entity/Q518830"},"geometry": {"type": "Point","coordinates": [7.514166666,50.636388888]}},{"type": "Feature","properties": {"marker-color": "#ff0000","marker-size": "small","name": "Steinhausen an der Rottum", "link": "http://www.wikidata.org/entity/Q534139"},"geometry": {"type": "Point","coordinates": [9.955833333,48.024166666]}},{"type": "Feature","properties": {"marker-color": "#ff0000","marker-size": "small","name": "Rottendorf", "link": "http://www.wikidata.org/entity/Q521196"},"geometry": {"type": "Point","coordinates": [10.026666666,49.790555555]}},{"type": "Feature","properties": {"marker-color": "#ff0000","marker-size": "small","name": "Rottenacker", "link": "http://www.wikidata.org/entity/Q521356"},"geometry": {"type": "Point","coordinates": [9.689444444,48.235555555]}},{"type": "Feature","properties": {"marker-color": "#ff0000","marker-size": "small","name": "Rott", "link": "http://www.wikidata.org/entity/Q515854"},"geometry": {"type": "Point","coordinates": [10.966666666,47.9]}},{"type": "Feature","properties": {"marker-color": "#ff0000","marker-size": "small","name": "Rotterode", "link": "http://www.wikidata.org/entity/Q559772"},"geometry": {"type": "Point","coordinates": [10.551666666,50.711111111]}},{"type": "Feature","properties": {"marker-color": "#ff0000","marker-size": "small","name": "Rott am Inn", "link": "http://www.wikidata.org/entity/Q558735"},"geometry": {"type": "Point","coordinates": [12.116666666,47.966666666]}},{"type": "Feature","properties": {"marker-color": "#ff0000","marker-size": "small","name": "Rotenburg an der Fulda", "link": "http://www.wikidata.org/entity/Q558631"},"geometry": {"type": "Point","coordinates": [9.727222222,50.995]}},{"type": "Feature","properties": {"marker-color": "#ff0000","marker-size": "small","name": "Rotenhain", "link": "http://www.wikidata.org/entity/Q676246"},"geometry": {"type": "Point","coordinates": [7.8825,50.600833333]}},{"type": "Feature","properties": {"marker-color": "#ff0000","marker-size": "small","name": "Königsee-Rottenbach", "link": "http://www.wikidata.org/entity/Q2491564"},"geometry": {"type": "Point","coordinates": [11.0974,50.6613]}},{"type": "Feature","properties": {"marker-color": "#ff0000","marker-size": "small","name": "Rottwerndorf", "link": "http://www.wikidata.org/entity/Q1316701"},"geometry": {"type": "Point","coordinates": [13.9625,50.922222222]}},{"type": "Feature","properties": {"marker-color": "#ff0000","marker-size": "small","name": "Rotmonten", "link": "http://www.wikidata.org/entity/Q2168859"},"geometry": {"type": "Point","coordinates": [9.37778,47.4392]}},{"type": "Feature","properties": {"marker-color": "#ff0000","marker-size": "small","name": "Rottenegg", "link": "http://www.wikidata.org/entity/Q2169017"},"geometry": {"type": "Point","coordinates": [11.6667,48.65]}},{"type": "Feature","properties": {"marker-color": "#ff0000","marker-size": "small","name": "Rotenturm an der Pinka", "link": "http://www.wikidata.org/entity/Q663379"},"geometry": {"type": "Point","coordinates": [16.243333333,47.252222222]}},{"type": "Feature","properties": {"marker-color": "#ff0000","marker-size": "small","name": "Rotenturm an der Pinka", "link": "http://www.wikidata.org/entity/Q663379"},"geometry": {"type": "Point","coordinates": [16.243333333,47.252222222]}},{"type": "Feature","properties": {"marker-color": "#ff0000","marker-size": "small","name": "Rottenmann", "link": "http://www.wikidata.org/entity/Q675678"},"geometry": {"type": "Point","coordinates": [14.355833333,47.526666666]}},{"type": "Feature","properties": {"marker-color": "#ff0000","marker-size": "small","name": "Rottenbach", "link": "http://www.wikidata.org/entity/Q680438"},"geometry": {"type": "Point","coordinates": [13.681111111,48.206111111]}},{"type": "Feature","properties": {"marker-color": "#ff0000","marker-size": "small","name": "Rott", "link": "http://www.wikidata.org/entity/Q151266"},"geometry": {"type": "Point","coordinates": [6.21,50.6822]}},{"type": "Feature","properties": {"marker-color": "#ff0000","marker-size": "small","name": "Rotbusch", "link": "http://www.wikidata.org/entity/Q266815"},"geometry": {"type": "Point","coordinates": [8.140336111,51.153494444]}},{"type": "Feature","properties": {"marker-color": "#ff0000","marker-size": "small","name": "Sohland am Rotstein", "link": "http://www.wikidata.org/entity/Q525896"},"geometry": {"type": "Point","coordinates": [14.78372,51.11643]}},{"type": "Feature","properties": {"marker-color": "#ff0000","marker-size": "small","name": "Sohland am Rotstein", "link": "http://www.wikidata.org/entity/Q525896"},"geometry": {"type": "Point","coordinates": [14.783055555,51.116666666]}},{"type": "Feature","properties": {"marker-color": "#ff0000","marker-size": "small","name": "Rottleben", "link": "http://www.wikidata.org/entity/Q532324"},"geometry": {"type": "Point","coordinates": [11.045,51.362777777]}},{"type": "Feature","properties": {"marker-color": "#ff0000","marker-size": "small","name": "Rottelsdorf", "link": "http://www.wikidata.org/entity/Q696195"},"geometry": {"type": "Point","coordinates": [11.680555555,51.582222222]}},{"type": "Feature","properties": {"marker-color": "#ff0000","marker-size": "small","name": "Rottleberode", "link": "http://www.wikidata.org/entity/Q699137"},"geometry": {"type": "Point","coordinates": [10.947222222,51.518333333]}},{"type": "Feature","properties": {"marker-color": "#ff0000","marker-size": "small","name": "Rote Insel", "link": "http://www.wikidata.org/entity/Q464401"},"geometry": {"type": "Point","coordinates": [13.362222,52.483889]}},{"type": "Feature","properties": {"marker-color": "#ff0000","marker-size": "small","name": "Rotta", "link": "http://www.wikidata.org/entity/Q697375"},"geometry": {"type": "Point","coordinates": [12.6025,51.764444444]}},{"type": "Feature","properties": {"marker-color": "#ff0000","marker-size": "small","name": "Rottluff", "link": "http://www.wikidata.org/entity/Q1069548"},"geometry": {"type": "Point","coordinates": [12.8583,50.8356]}},{"type": "Feature","properties": {"marker-color": "#ff0000","marker-size": "small","name": "Rotfelden", "link": "http://www.wikidata.org/entity/Q1233907"},"geometry": {"type": "Point","coordinates": [8.698055555,48.606111111]}},{"type": "Feature","properties": {"marker-color": "#ff0000","marker-size": "small","name": "Rotfelden", "link": "http://www.wikidata.org/entity/Q1233907"},"geometry": {"type": "Point","coordinates": [8.69876,48.6065]}},{"type": "Feature","properties": {"marker-color": "#ff0000","marker-size": "small","name": "Rotingdorf", "link": "http://www.wikidata.org/entity/Q1265400"},"geometry": {"type": "Point","coordinates": [8.39361,52.0922]}},{"type": "Feature","properties": {"marker-color": "#ff0000","marker-size": "small","name": "Rottdorf", "link": "http://www.wikidata.org/entity/Q1271115"},"geometry": {"type": "Point","coordinates": [11.3615,50.8542]}},{"type": "Feature","properties": {"marker-color": "#ff0000","marker-size": "small","name": "Rottwerndorf", "link": "http://www.wikidata.org/entity/Q1316701"},"geometry": {"type": "Point","coordinates": [13.9625,50.922222222]}},{"type": "Feature","properties": {"marker-color": "#ff0000","marker-size": "small","name": "Rottenbauer", "link": "http://www.wikidata.org/entity/Q1273570"},"geometry": {"type": "Point","coordinates": [9.96667,49.7222]}},{"type": "Feature","properties": {"marker-color": "#ff0000","marker-size": "small","name": "Rott", "link": "http://www.wikidata.org/entity/Q1297775"},"geometry": {"type": "Point","coordinates": [7.18722,51.2733]}},{"type": "Feature","properties": {"marker-color": "#ff0000","marker-size": "small","name": "Roter Berg", "link": "http://www.wikidata.org/entity/Q1350188"},"geometry": {"type": "Point","coordinates": [11.0228,51.0169]}},{"type": "Feature","properties": {"marker-color": "#ff0000","marker-size": "small","name": "Rott", "link": "http://www.wikidata.org/entity/Q1392799"},"geometry": {"type": "Point","coordinates": [9.12554,52.1329]}},{"type": "Feature","properties": {"marker-color": "#ff0000","marker-size": "small","name": "Rotes Feld", "link": "http://www.wikidata.org/entity/Q1584964"},"geometry": {"type": "Point","coordinates": [10.4081,53.2383]}},{"type": "Feature","properties": {"marker-color": "#ff0000","marker-size": "small","name": "Rotthausen", "link": "http://www.wikidata.org/entity/Q1499815"},"geometry": {"type": "Point","coordinates": [7.08361,51.4906]}},{"type": "Feature","properties": {"marker-color": "#ff0000","marker-size": "small","name": "Rottorf", "link": "http://www.wikidata.org/entity/Q1511194"},"geometry": {"type": "Point","coordinates": [10.841,52.256]}},{"type": "Feature","properties": {"marker-color": "#ff0000","marker-size": "small","name": "Rottorf am Klei", "link": "http://www.wikidata.org/entity/Q1645847"},"geometry": {"type": "Point","coordinates": [10.94203,52.29722]}},{"type": "Feature","properties": {"marker-color": "#ff0000","marker-size": "small","name": "Rotenkirchen", "link": "http://www.wikidata.org/entity/Q1607226"},"geometry": {"type": "Point","coordinates": [9.82806,51.7697]}},{"type": "Feature","properties": {"marker-color": "#ff0000","marker-size": "small","name": "Rottum", "link": "http://www.wikidata.org/entity/Q1720635"},"geometry": {"type": "Point","coordinates": [9.92484,48.0324]}},{"type": "Feature","properties": {"marker-color": "#ff0000","marker-size": "small","name": "Rotberg", "link": "http://www.wikidata.org/entity/Q1770858"},"geometry": {"type": "Point","coordinates": [13.5133,52.3422]}},{"type": "Feature","properties": {"marker-color": "#ff0000","marker-size": "small","name": "Rottnersdorf", "link": "http://www.wikidata.org/entity/Q1796205"},"geometry": {"type": "Point","coordinates": [10.5569,49.1531]}},{"type": "Feature","properties": {"marker-color": "#ff0000","marker-size": "small","name": "Rot (Stuttgart)", "link": "http://www.wikidata.org/entity/Q2168004"},"geometry": {"type": "Point","coordinates": [9.1927,48.834]}},{"type": "Feature","properties": {"marker-color": "#ff0000","marker-size": "small","name": "Rote Grube", "link": "http://www.wikidata.org/entity/Q2168175"},"geometry": {"type": "Point","coordinates": [12.692222222,50.475]}},{"type": "Feature","properties": {"marker-color": "#ff0000","marker-size": "small","name": "Rote Mühle", "link": "http://www.wikidata.org/entity/Q2168216"},"geometry": {"type": "Point","coordinates": [9.54639,50.0189]}},{"type": "Feature","properties": {"marker-color": "#ff0000","marker-size": "small","name": "Rotenberg", "link": "http://www.wikidata.org/entity/Q2168307"},"geometry": {"type": "Point","coordinates": [8.71528,49.2581]}},{"type": "Feature","properties": {"marker-color": "#ff0000","marker-size": "small","name": "Rotensee", "link": "http://www.wikidata.org/entity/Q2168328"},"geometry": {"type": "Point","coordinates": [9.7425,50.8347]}},{"type": "Feature","properties": {"marker-color": "#ff0000","marker-size": "small","name": "Rotenbühl", "link": "http://www.wikidata.org/entity/Q2168315"},"geometry": {"type": "Point","coordinates": [7.01361,49.2417]}},{"type": "Feature","properties": {"marker-color": "#ff0000","marker-size": "small","name": "Rotenberg (Stuttgart)", "link": "http://www.wikidata.org/entity/Q2168318"},"geometry": {"type": "Point","coordinates": [9.2715,48.7833]}},{"type": "Feature","properties": {"marker-color": "#ff0000","marker-size": "small","name": "Rotenhagen", "link": "http://www.wikidata.org/entity/Q2168322"},"geometry": {"type": "Point","coordinates": [8.40898,52.1073]}},{"type": "Feature","properties": {"marker-color": "#ff0000","marker-size": "small","name": "Rottbitze", "link": "http://www.wikidata.org/entity/Q2168982"},"geometry": {"type": "Point","coordinates": [7.31153,50.6455]}},{"type": "Feature","properties": {"marker-color": "#ff0000","marker-size": "small","name": "Rotschau", "link": "http://www.wikidata.org/entity/Q2168905"},"geometry": {"type": "Point","coordinates": [12.2872,50.6139]}},{"type": "Feature","properties": {"marker-color": "#ff0000","marker-size": "small","name": "Rotscheroth", "link": "http://www.wikidata.org/entity/Q2168910"},"geometry": {"type": "Point","coordinates": [7.50028,50.8322]}},{"type": "Feature","properties": {"marker-color": "#ff0000","marker-size": "small","name": "Rott", "link": "http://www.wikidata.org/entity/Q2168948"},"geometry": {"type": "Point","coordinates": [7.26333,50.7461]}},{"type": "Feature","properties": {"marker-color": "#ff0000","marker-size": "small","name": "Rotterterode", "link": "http://www.wikidata.org/entity/Q2169053"},"geometry": {"type": "Point","coordinates": [9.56417,50.8717]}},{"type": "Feature","properties": {"marker-color": "#ff0000","marker-size": "small","name": "Rottewitz", "link": "http://www.wikidata.org/entity/Q2169055"},"geometry": {"type": "Point","coordinates": [13.4639,51.1833]}},{"type": "Feature","properties": {"marker-color": "#ff0000","marker-size": "small","name": "Rottland", "link": "http://www.wikidata.org/entity/Q2169062"},"geometry": {"type": "Point","coordinates": [7.3551,50.9595]}},{"type": "Feature","properties": {"marker-color": "#ff0000","marker-size": "small","name": "Rottland", "link": "http://www.wikidata.org/entity/Q2169064"},"geometry": {"type": "Point","coordinates": [7.56278,50.8675]}},{"type": "Feature","properties": {"marker-color": "#ff0000","marker-size": "small","name": "Rottenberg", "link": "http://www.wikidata.org/entity/Q2169002"},"geometry": {"type": "Point","coordinates": [9.23181,50.0394]}},{"type": "Feature","properties": {"marker-color": "#ff0000","marker-size": "small","name": "Rottenegg", "link": "http://www.wikidata.org/entity/Q2169017"},"geometry": {"type": "Point","coordinates": [11.6667,48.65]}},{"type": "Feature","properties": {"marker-color": "#ff0000","marker-size": "small","name": "Rotter See", "link": "http://www.wikidata.org/entity/Q2169035"},"geometry": {"type": "Point","coordinates": [7.11863,50.8097]}},{"type": "Feature","properties": {"marker-color": "#ff0000","marker-size": "small","name": "Rottershausen", "link": "http://www.wikidata.org/entity/Q2169052"},"geometry": {"type": "Point","coordinates": [10.1611,50.1664]}},{"type": "Feature","properties": {"marker-color": "#ff0000","marker-size": "small","name": "Rottland", "link": "http://www.wikidata.org/entity/Q2169066"},"geometry": {"type": "Point","coordinates": [7.29937,51.2328]}},{"type": "Feature","properties": {"marker-color": "#ff0000","marker-size": "small","name": "Rott (Neustadt)", "link": "http://www.wikidata.org/entity/Q2168949"},"geometry": {"type": "Point","coordinates": [7.3762,50.613]}},{"type": "Feature","properties": {"marker-color": "#ff0000","marker-size": "small","name": "Rottau", "link": "http://www.wikidata.org/entity/Q2168975"},"geometry": {"type": "Point","coordinates": [12.4139,47.7944]}},{"type": "Feature","properties": {"marker-color": "#ff0000","marker-size": "small","name": "Rottmannsdorf", "link": "http://www.wikidata.org/entity/Q2169073"},"geometry": {"type": "Point","coordinates": [12.4708,50.6611]}},{"type": "Feature","properties": {"marker-color": "#ff0000","marker-size": "small","name": "Rottmannshagen", "link": "http://www.wikidata.org/entity/Q2169074"},"geometry": {"type": "Point","coordinates": [12.8595,53.6507]}},{"type": "Feature","properties": {"marker-color": "#ff0000","marker-size": "small","name": "Rottmar", "link": "http://www.wikidata.org/entity/Q2169077"},"geometry": {"type": "Point","coordinates": [11.2094,50.3228]}},{"type": "Feature","properties": {"marker-color": "#ff0000","marker-size": "small","name": "Rottmecke", "link": "http://www.wikidata.org/entity/Q2169079"},"geometry": {"type": "Point","coordinates": [7.74972,51.3364]}},{"type": "Feature","properties": {"marker-color": "#ff0000","marker-size": "small","name": "Rottorf", "link": "http://www.wikidata.org/entity/Q2169091"},"geometry": {"type": "Point","coordinates": [10.3107,53.3364]}},{"type": "Feature","properties": {"marker-color": "#ff0000","marker-size": "small","name": "Rotscherlinde", "link": "http://www.wikidata.org/entity/Q15059493"},"geometry": {"type": "Point","coordinates": [12.6025,52.33333333]}},{"type": "Feature","properties": {"marker-color": "#ff0000","marker-size": "small","name": "Rottenau", "link": "http://www.wikidata.org/entity/Q15059494"},"geometry": {"type": "Point","coordinates": [12.1051,52.1032]}},{"type": "Feature","properties": {"marker-color": "#ff0000","marker-size": "small","name": "Rottlersreuth", "link": "http://www.wikidata.org/entity/Q15059496"},"geometry": {"type": "Point","coordinates": [11.437172,50.046075]}},{"type": "Feature","properties": {"marker-color": "#ff0000","marker-size": "small","name": "Rottendorf", "link": "http://www.wikidata.org/entity/Q14912651"},"geometry": {"type": "Point","coordinates": [12.3487,49.46]}},{"type": "Feature","properties": {"marker-color": "#ff0000","marker-size": "small","name": "Bad Rotenfels", "link": "http://www.wikidata.org/entity/Q4840424"},"geometry": {"type": "Point","coordinates": [8.31944444,48.80388889]}},{"type": "Feature","properties": {"marker-color": "#ff0000","marker-size": "small","name": "Milbitz (Königsee-Rottenbach)", "link": "http://www.wikidata.org/entity/Q2779659"},"geometry": {"type": "Point","coordinates": [11.1383,50.6942]}},{"type": "Feature","properties": {"marker-color": "#ff0000","marker-size": "small","name": "Rottland", "link": "http://www.wikidata.org/entity/Q19299376"},"geometry": {"type": "Point","coordinates": [7.212112,50.99644]}},{"type": "Feature","properties": {"marker-color": "#ff0000","marker-size": "small","name": "Rottenbach", "link": "http://www.wikidata.org/entity/Q680438"},"geometry": {"type": "Point","coordinates": [13.681111111,48.206111111]}},{"type": "Feature","properties": {"marker-color": "#ff0000","marker-size": "small","name": "Rottenbach", "link": "http://www.wikidata.org/entity/Q15843104"},"geometry": {"type": "Point","coordinates": [10.92555556,50.38055556]}},{"type": "Feature","properties": {"marker-color": "#ff0000","marker-size": "small","name": "Stetten ob Rottweil", "link": "http://www.wikidata.org/entity/Q20051469"},"geometry": {"type": "Point","coordinates": [8.53555584,48.17833328]}},{"type": "Feature","properties": {"marker-color": "#ff0000","marker-size": "small","name": "Rottum", "link": "http://www.wikidata.org/entity/Q19965727"},"geometry": {"type": "Point","coordinates": [7.70347222,51.60730556]}},{"type": "Feature","properties": {"marker-color": "#ff0000","marker-size": "small","name": "Rote Ziegelei", "link": "http://www.wikidata.org/entity/Q17353995"},"geometry": {"type": "Point","coordinates": [12.45656,52.48912]}},{"type": "Feature","properties": {"marker-color": "#ff0000","marker-size": "small","name": "Rotacker", "link": "http://www.wikidata.org/entity/Q20656103"},"geometry": {"type": "Point","coordinates": [10.83484,51.67555]}},{"type": "Feature","properties": {"marker-color": "#ff0000","marker-size": "small","name": "Rottachmühle", "link": "http://www.wikidata.org/entity/Q20754410"},"geometry": {"type": "Point","coordinates": [10.27334523,47.71041807]}},{"type": "Feature","properties": {"marker-color": "#ff0000","marker-size": "small","name": "Rottstock", "link": "http://www.wikidata.org/entity/Q25158455"},"geometry": {"type": "Point","coordinates": [12.353482,52.198959]}},{"type": "Feature","properties": {"marker-color": "#ff0000","marker-size": "small","name": "Bauernhaus vulgo Rotschädel/Erzherzog-Johann-Haus", "link": "http://www.wikidata.org/entity/Q37963174"},"geometry": {"type": "Point","coordinates": [15.252867,46.843889]}},{"type": "Feature","properties": {"marker-color": "#ff0000","marker-size": "small","name": "Bauernhau", "link": "http://www.wikidata.org/entity/Q38177513"},"geometry": {"type": "Point","coordinates": [9.906568,47.46252]}},{"type": "Feature","properties": {"marker-color": "#ff0000","marker-size": "small","name": "Rottenburg am Neckar", "link": "http://www.wikidata.org/entity/Q7078"},"geometry": {"type": "Point","coordinates": [8.934444444,48.477222222]}},{"type": "Feature","properties": {"marker-color": "#ff0000","marker-size": "small","name": "Rottweil", "link": "http://www.wikidata.org/entity/Q82960"},"geometry": {"type": "Point","coordinates": [8.624722222,48.168055555]}},{"type": "Feature","properties": {"marker-color": "#ff0000","marker-size": "small","name": "Rote Welle", "link": "http://www.wikidata.org/entity/Q1493757"},"geometry": {"type": "Point","coordinates": [11.5624,51.6585]}},{"type": "Feature","properties": {"marker-color": "#ff0000","marker-size": "small","name": "Rotterdam", "link": "http://www.wikidata.org/entity/Q19965726"},"geometry": {"type": "Point","coordinates": [7.37094444,51.14380556]}},{"type": "Feature","properties": {"marker-color": "#ff0000","marker-size": "small","name": "Rotelsau", "link": "http://www.wikidata.org/entity/Q1784658"},"geometry": {"type": "Point","coordinates": [9.58772,50.2437]}},{"type": "Feature","properties": {"marker-color": "#ff0000","marker-size": "small","name": "Rottenbach (Wüstung)", "link": "http://www.wikidata.org/entity/Q15126412"},"geometry": {"type": "Point","coordinates": [11.064906,50.73784]}},{"type": "Feature","properties": {"marker-color": "#ff0000","marker-size": "small","name": "Frankfurter Rotlichtviertel", "link": "http://www.wikidata.org/entity/Q15616603"},"geometry": {"type": "Point","coordinates": [8.666484,50.109116]}},{"type": "Feature","properties": {"marker-color": "#ff0000","marker-size": "small","name": "Rottersdorf (Wüstung)", "link": "http://www.wikidata.org/entity/Q2169048"},"geometry": {"type": "Point","coordinates": [11.6194,52.1179]}},{"type": "Feature","properties": {"marker-color": "#ff0000","marker-size": "small","name": "Höllhof (Rot an der Rot)", "link": "http://www.wikidata.org/entity/Q2722842"},"geometry": {"type": "Point","coordinates": [10.039712,47.980385]}},{"type": "Feature","properties": {"marker-color": "#ff0000","marker-size": "small","name": "Rottweil", "link": "http://www.wikidata.org/entity/Q82960"},"geometry": {"type": "Point","coordinates": [8.624722222,48.168055555]}},{"type": "Feature","properties": {"marker-color": "#ff0000","marker-size": "small","name": "Rottenbach", "link": "http://www.wikidata.org/entity/Q649258"},"geometry": {"type": "Point","coordinates": [11.163888888,50.688055555]}},{"type": "Feature","properties": {"marker-color": "#ff0000","marker-size": "small","name": "Rottmersleben", "link": "http://www.wikidata.org/entity/Q669764"},"geometry": {"type": "Point","coordinates": [11.395555555,52.211388888]}},{"type": "Feature","properties": {"marker-color": "#ff0000","marker-size": "small","name": "Rote Welle", "link": "http://www.wikidata.org/entity/Q1493757"},"geometry": {"type": "Point","coordinates": [11.5624,51.6585]}},{"type": "Feature","properties": {"marker-color": "#ff0000","marker-size": "small","name": "Rotkreuz", "link": "http://www.wikidata.org/entity/Q1630904"},"geometry": {"type": "Point","coordinates": [8.43164,47.1413]}},{"type": "Feature","properties": {"marker-color": "#ff0000","marker-size": "small","name": "Höllhof (Rot an der Rot)", "link": "http://www.wikidata.org/entity/Q2722842"},"geometry": {"type": "Point","coordinates": [10.039712,47.980385]}},{"type": "Feature","properties": {"marker-color": "#ff0000","marker-size": "small","name": "Rotzingen", "link": "http://www.wikidata.org/entity/Q13142873"},"geometry": {"type": "Point","coordinates": [8.076247,47.665733]}},{"type": "Feature","properties": {"marker-color": "#ff0000","marker-size": "small","name": "Rottnersdorf", "link": "http://www.wikidata.org/entity/Q1796205"},"geometry": {"type": "Point","coordinates": [10.5569,49.1531]}},{"type": "Feature","properties": {"marker-color": "#ff0000","marker-size": "small","name": "Roter Block", "link": "http://www.wikidata.org/entity/Q15126393"},"geometry": {"type": "Point","coordinates": [7.160679,51.530838]}},{"type": "Feature","properties": {"marker-color": "#ff0000","marker-size": "small","name": "Rottlandhof", "link": "http://www.wikidata.org/entity/Q2169067"},"geometry": {"type": "Point","coordinates": [7.306272,50.63755]}},{"type": "Feature","properties": {"marker-color": "#ff0000","marker-size": "small","name": "Roter Bühl", "link": "http://www.wikidata.org/entity/Q2168365"},"geometry": {"type": "Point","coordinates": [11.0887,49.426]}},{"type": "Feature","properties": {"marker-color": "#ff0000","marker-size": "small","name": "Red Bay", "link": "http://www.wikidata.org/entity/Q80035"},"geometry": {"type": "Point","coordinates": [-88.138208,34.439898]}},{"type": "Feature","properties": {"marker-color": "#ff0000","marker-size": "small","name": "Redfield", "link": "http://www.wikidata.org/entity/Q79682"},"geometry": {"type": "Point","coordinates": [-92.183194444,34.445083333]}},{"type": "Feature","properties": {"marker-color": "#ff0000","marker-size": "small","name": "Red Bud", "link": "http://www.wikidata.org/entity/Q574895"},"geometry": {"type": "Point","coordinates": [-89.9964,38.2103]}},{"type": "Feature","properties": {"marker-color": "#ff0000","marker-size": "small","name": "Redwood City", "link": "http://www.wikidata.org/entity/Q505549"},"geometry": {"type": "Point","coordinates": [-122.236111111,37.482777777]}},{"type": "Feature","properties": {"marker-color": "#ff0000","marker-size": "small","name": "Red Bluff", "link": "http://www.wikidata.org/entity/Q546468"},"geometry": {"type": "Point","coordinates": [-122.238055555,40.176666666]}},{"type": "Feature","properties": {"marker-color": "#ff0000","marker-size": "small","name": "Redfield", "link": "http://www.wikidata.org/entity/Q603029"},"geometry": {"type": "Point","coordinates": [-94.8808,37.8364]}},{"type": "Feature","properties": {"marker-color": "#ff0000","marker-size": "small","name": "Redlands", "link": "http://www.wikidata.org/entity/Q753830"},"geometry": {"type": "Point","coordinates": [-117.1825,34.054722222]}},{"type": "Feature","properties": {"marker-color": "#ff0000","marker-size": "small","name": "Claverack-Red Mills", "link": "http://www.wikidata.org/entity/Q473320"},"geometry": {"type": "Point","coordinates": [-73.7214,42.2253]}},{"type": "Feature","properties": {"marker-color": "#ff0000","marker-size": "small","name": "Redland", "link": "http://www.wikidata.org/entity/Q1354372"},"geometry": {"type": "Point","coordinates": [-122.491111111,45.342222222]}},{"type": "Feature","properties": {"marker-color": "#ff0000","marker-size": "small","name": "Red Lodge", "link": "http://www.wikidata.org/entity/Q959349"},"geometry": {"type": "Point","coordinates": [-109.248611111,45.1875]}},{"type": "Feature","properties": {"marker-color": "#ff0000","marker-size": "small","name": "Red Cloud", "link": "http://www.wikidata.org/entity/Q960478"},"geometry": {"type": "Point","coordinates": [-98.522777777,40.088333333]}},{"type": "Feature","properties": {"marker-color": "#ff0000","marker-size": "small","name": "Red Wing", "link": "http://www.wikidata.org/entity/Q862727"},"geometry": {"type": "Point","coordinates": [-92.534722222,44.565555555]}},{"type": "Feature","properties": {"marker-color": "#ff0000","marker-size": "small","name": "Redwood", "link": "http://www.wikidata.org/entity/Q3301421"},"geometry": {"type": "Point","coordinates": [-123.387222222,42.421944444]}},